link,date,price,rooms,full_address,latitude,longitude,city_district,state,city,road,house_number,floor,total_floors,housing_type,total_area,living_area,kitchen_area,ceiling_height,repair,house_year,house_type,windows_view,bathrooms_num,parking,elevators_num,balcony_num,schools,hospitals,grocery_stores,kindergartens
https://nn.cian.ru/sale/flat/297760226/,2024-03-18 19:15:00,1470000,1,"Нижегородская область, Нижний Новгород, р-н Московский, мкр. Новая Стройка, ул. Байдукова, 1",56.3353715,43.825737399999994,Московский район,Nizhny Novgorod Oblast,Nizhny Novgorod,улица Байдукова,1,1,1,1,32.7,16.6,11.0,,,,2,2,1,,,,3,,6,10
https://nn.cian.ru/sale/flat/297765071/,2024-03-19 11:35:00,1500000,1,"Нижегородская область, Нижний Новгород, р-н Канавинский, мкр. Канавино, Канавинская ул., 61",56.317319600000005,43.94886565,Канавинский район,Nizhny Novgorod Oblast,Nizhny Novgorod,Канавинская улица,61,1,2,1,24.7,13.3,7.0,2.8,,1916,1,2,1,1,,,7,1,15,7
https://nn.cian.ru/sale/flat/299508615/,2024-03-12 14:29:00,1900000,1,"Нижегородская область, Нижний Новгород, р-н Сормовский, мкр. Высоково, Ужгородская ул., 24А",56.388788,43.757659399999994,Сормовский район,Nizhny Novgorod Oblast,Nizhny Novgorod,Ужгородская улица,24А,1,1,1,25.0,,,,,,1,1,,1,,,1,,1,1
https://nn.cian.ru/sale/flat/298796172/,2024-02-20 19:49:00,1990000,1,"Нижегородская область, Нижний Новгород, р-н Ленинский, мкр. Молитовка, Перекопская ул., 8",56.275074849999996,43.93964093454402,Ленинский район,Nizhny Novgorod Oblast,Nizhny Novgorod,Перекопская улица,8,1,5,1,13.2,10.0,,2.5,,1971,,,,,,,8,2,15,16
https://nn.cian.ru/sale/flat/298756788/,2024-02-19 21:57:00,1200000,,"Нижегородская область, Нижний Новгород, ул. Дружбы, 3",56.28943305,43.9064973259577,Ленинский район,Nizhny Novgorod Oblast,Nizhny Novgorod,улица Дружбы,3,2,2,1,44.9,25.0,4.0,,3,1934,,1,,,,,4,2,4,3
https://nn.cian.ru/sale/flat/298379118/,2024-03-05 16:38:00,1400000,,"Нижегородская область, Нижний Новгород, р-н Нижегородский, мкр. Усиловский, Яблоневая ул., 13",56.30964875,44.049984734703244,Нижегородский район,Nizhny Novgorod Oblast,Nizhny Novgorod,Yablonevaya ul.,13,3,4,1,100.0,,7.0,,,1962,1,2,1,1,,1,2,1,8,6
https://nn.cian.ru/sale/flat/288428796/,2024-03-20 05:16:00,1300000,,"Нижегородская область, Нижний Новгород, р-н Ленинский, мкр. Двигатель Революции, ул. Глеба Успенского, 9",56.2706965,43.9308092,Ленинский район,Nizhny Novgorod Oblast,Nizhny Novgorod,улица Глеба Успенского,9,3,3,1,79.0,,8.0,2.9,3,1952,5,2,1,1,,1,8,2,17,21
https://nn.cian.ru/sale/flat/296025196/,2024-03-19 13:40:00,1250000,3,"Нижегородская область, Богородский район, Лазарево деревня, ул. Бекетова, 1",,,,,,,,1,2,1,58.0,39.8,6.0,,,1974,1,1,1,,,,,,,
https://nn.cian.ru/sale/flat/292244417/,2024-03-19 18:25:00,700000,,"Нижегородская область, Нижний Новгород, р-н Московский, мкр. Орджоникидзе, ул. Баранова, 5",56.3322666,43.8483746,Московский район,Nizhny Novgorod Oblast,Nizhny Novgorod,улица Баранова,5,5,5,1,45.6,31.4,6.0,,,1970,1,,1,,,1,4,3,14,16
https://nn.cian.ru/sale/flat/298018780/,2024-03-02 23:08:00,1300000,,"Нижегородская область, Нижний Новгород, р-н Советский, мкр. улица Бекетова, ул. Бекетова, 30А",56.29219325,44.00160275,Советский район,Nizhny Novgorod Oblast,Nizhny Novgorod,улица Бекетова,30А,3,3,1,108.0,77.0,11.0,2.6,3,1967,1,1,1,,,,5,6,12,12
https://nn.cian.ru/sale/flat/289191115/,2024-11-23 13:57:00,205000,,"Нижегородская область, Нижний Новгород, р-н Сормовский, мкр. 5-6-7 Сормова, ул. Зайцева, 17к2",56.36779425,43.80791955000001,Сормовский район,Nizhny Novgorod Oblast,Nizhny Novgorod,улица Зайцева,17 к2,8,10,1,53.3,31.5,8.8,,3,2000,4,2,1,1,1,1,9,,15,13
https://nn.cian.ru/sale/flat/299025053/,2024-03-19 15:25:00,1200000,,"Нижегородская область, Нижний Новгород, р-н Автозаводский, мкр. Мончегорский, ул. Мончегорская, 11А/3",56.2347996,43.8291743,Автозаводский район,Nizhny Novgorod Oblast,Nizhny Novgorod,Мончегорская улица,,5,5,1,389.8,,15.0,,3,1974,,,8,,,1,5,1,15,15
https://nn.cian.ru/sale/flat/277647266/,2024-03-19 14:40:00,600000,2,"Нижегородская область, Шахунья городской округ, Вахтан рп, ул. Карповская, 45",,,,,,,,1,3,1,44.0,28.0,7.0,,2,1984,1,,1,,,1,,,,
https://nn.cian.ru/sale/flat/298257362/,2024-03-18 14:25:00,900000,,"Нижегородская область, Нижний Новгород, р-н Автозаводский, мкр. Автозавод, Автомеханическая ул., 28",56.23100815,43.85991812159445,Автозаводский район,Nizhny Novgorod Oblast,Nizhny Novgorod,Автомеханическая улица,28,5,5,1,85.6,,,,3,1963,1,,1,,,,12,1,22,20
https://nn.cian.ru/sale/flat/298984137/,2024-03-12 14:36:00,1400000,1,"Нижегородская область, Кстовский муниципальный округ, Запрудное село, ул. Магистральная, 25",56.0401915,44.448759,,Nizhny Novgorod Oblast,,Магистральная улица,,3,5,1,29.0,15.0,6.0,2.7,,1974,1,2,1,1,,1,,,1,
https://nn.cian.ru/sale/flat/296800969/,2024-03-19 18:12:00,1199999,,"Нижегородская область, Нижний Новгород, р-н Сормовский, мкр. Вождей Революции, ул. Пржевальского, 4",56.34965205,43.844460615084195,Сормовский район,Nizhny Novgorod Oblast,Nizhny Novgorod,улица Пржевальского,4,1,4,1,59.4,,,,,1930,,,1,,,,5,8,16,16
https://nn.cian.ru/sale/flat/295831160/,2024-03-11 10:40:00,1300000,,"Нижегородская область, Нижний Новгород, р-н Московский, мкр. Спортивный, ул. Героя Безрукова, 2",56.3295198,43.88272077411745,Московский район,Nizhny Novgorod Oblast,Nizhny Novgorod,улица Героя Безрукова,2,1,4,1,120.0,,20.0,,3,1931,1,,,,,,10,4,14,12
https://nn.cian.ru/sale/flat/289072085/,2024-03-19 20:25:00,800000,,"Нижегородская область, Нижний Новгород, р-н Приокский, мкр. Щербинки, ул. Петровского, 1",56.249464,43.9781223,Приокский район,Nizhny Novgorod Oblast,Nizhny Novgorod,улица Петровского,1,2,2,1,53.0,,9.0,,,1956,5,,1,,,,1,1,5,4
https://nn.cian.ru/sale/flat/298984733/,2024-03-19 21:10:00,1150000,,"Нижегородская область, Нижний Новгород, р-н Московский, мкр. Спортивный, ул. Софьи Перовской, 3",56.33423895,43.878120070475276,Московский район,Nizhny Novgorod Oblast,Nizhny Novgorod,улица Софьи Перовской,3,2,2,1,16.3,,12.0,,3,1951,5,,1,,,,10,4,13,11
https://nn.cian.ru/sale/flat/291608032/,2024-12-30 13:10:00,1300000,,"Нижегородская область, Нижний Новгород, р-н Московский, мкр. Спортивный, ул. Страж Революции, 23",56.3317366,43.87966976603224,Московский район,Nizhny Novgorod Oblast,Nizhny Novgorod,улица Страж Революции,23,2,4,1,85.5,,5.9,3.0,3,1933,1,,1,,,1,10,4,16,11
https://nn.cian.ru/sale/flat/291111789/,2024-03-18 17:55:00,990000,,"Нижегородская область, Нижний Новгород, р-н Московский, мкр. Красные зори, ул. Героя Рябцева, 2",56.3165163,43.8689724,Московский район,Nizhny Novgorod Oblast,Nizhny Novgorod,улица Героя Рябцева,2,2,2,1,90.0,,,,,1953,1,,1,,,,6,1,10,12
https://nn.cian.ru/sale/flat/293906391/,2024-02-25 16:52:00,860000,,"Нижегородская область, Нижний Новгород, р-н Московский, мкр. Московский проспект, просп. Героев, 37А",56.32197965,43.88911252549164,Московский район,Nizhny Novgorod Oblast,Nizhny Novgorod,проспект Героев,37А,1,2,1,284.0,,35.0,,3,1963,1,1,,,,,10,4,11,10
https://nn.cian.ru/sale/flat/294772289/,2024-03-18 17:10:00,1300000,,"Нижегородская область, Нижний Новгород, р-н Сормовский, мкр. Дарьино, Юбилейный бул., 6",56.3459091,43.8654455,Сормовский район,Nizhny Novgorod Oblast,Nizhny Novgorod,Юбилейный бульвар,6,4,5,1,100.0,,7.0,,3,1955,1,,1,,,,9,2,18,12
https://nn.cian.ru/sale/flat/266868417/,2024-12-19 15:53:00,900000,,"Нижегородская область, Нижний Новгород, р-н Сормовский, мкр. Комсомольский, ул. Василия Иванова, 34",56.3661009,43.82668516110749,Сормовский район,Nizhny Novgorod Oblast,Nizhny Novgorod,улица Василия Иванова,34,2,2,1,57.0,,7.3,3.0,3,1950,,2,1,1,,,7,1,11,12
https://nn.cian.ru/sale/flat/290173303/,2024-03-19 10:55:00,3400000,1,"Нижегородская область, Нижний Новгород, р-н Канавинский, мкр. 15-й квартал, Авангардная ул., 14",56.309243050000006,43.886658673092974,Канавинский район,Nizhny Novgorod Oblast,Nizhny Novgorod,Авангардная улица,14,9,9,1,21.8,11.9,4.9,2.55,2,1975,4,2,,1,1,,7,1,11,7
https://nn.cian.ru/sale/flat/296477224/,2024-03-19 15:10:00,3600000,1,"Нижегородская область, Нижний Новгород, р-н Сормовский, мкр. Вождей Революции, ул. Шимборского, 9",56.344578999999996,43.845992972706156,Сормовский район,Nizhny Novgorod Oblast,Nizhny Novgorod,улица Шимборского,9,2,5,1,33.0,18.5,5.5,,3,1962,4,,1,,,1,7,3,17,19
https://nn.cian.ru/sale/flat/299550233/,2024-03-13 12:38:00,3999000,1,"Нижегородская область, Нижний Новгород, р-н Московский, мкр. Бурнаковский, ул. Куйбышева, 43",56.3283312,43.9087271,Московский район,Nizhny Novgorod Oblast,Nizhny Novgorod,улица Куйбышева,43,3,5,1,31.0,15.2,5.0,,2,1917,1,1,1,1,,1,4,1,9,9
https://nn.cian.ru/sale/flat/297446855/,2024-03-19 13:49:00,3600000,1,"Нижегородская область, Нижний Новгород, р-н Ленинский, мкр. Карповка, ул. Героя Попова, 9/1",56.2620795,43.9375163,Ленинский район,Nizhny Novgorod Oblast,Nizhny Novgorod,улица Героя Попова,,8,9,1,33.8,16.9,7.5,,3,1987,,1,1,,1,1,1,,2,5
https://nn.cian.ru/sale/flat/296635361/,2024-03-19 20:57:00,3880000,1,"Нижегородская область, Нижний Новгород, р-н Автозаводский, мкр. Автозавод, ул. Юлиуса Фучика, 13",56.2375254,43.8715746,Автозаводский район,Nizhny Novgorod Oblast,Nizhny Novgorod,улица Фучика,13,4,5,1,30.5,16.7,6.0,2.5,3,1967,1,1,1,,,,8,3,23,14
https://nn.cian.ru/sale/flat/293077519/,2024-03-18 17:10:00,3449000,1,"Нижегородская область, Нижний Новгород, р-н Московский, мкр. Орджоникидзе, ул. Мечникова, 79",56.337424999999996,43.8331243793479,Московский район,Nizhny Novgorod Oblast,Nizhny Novgorod,улица Мечникова,79,2,9,1,29.5,17.6,5.1,,,1981,1,,1,,1,,4,1,12,17
https://nn.cian.ru/sale/flat/297033758/,2024-03-18 12:52:00,3400000,1,"Нижегородская область, Нижний Новгород, р-н Московский, мкр. Авиационный, ул. Чаадаева, 6",56.3286894,43.8501362,Московский район,Nizhny Novgorod Oblast,Nizhny Novgorod,улица Чаадаева,6,4,5,1,26.0,13.0,7.0,2.5,3,1970,1,1,1,,,,3,3,12,16
https://nn.cian.ru/sale/flat/298779690/,2024-03-19 20:57:00,3150000,1,"Нижегородская область, Нижний Новгород, р-н Автозаводский, мкр. Доскино, ул. Бубнова, 8",56.24730075,43.75097452595793,Автозаводский район,Nizhny Novgorod Oblast,Nizhny Novgorod,улица Бубнова,8,5,5,1,32.5,17.2,6.0,,3,1976,4,1,1,,,1,,,1,1
https://nn.cian.ru/sale/flat/299667226/,2024-03-16 11:10:00,3050000,1,"Нижегородская область, Нижний Новгород, р-н Канавинский, мкр. Сортировочный, Путейская ул., 15",56.290226849999996,43.85598961810783,Канавинский район,Nizhny Novgorod Oblast,Nizhny Novgorod,Путейская улица,15,3,5,1,31.9,18.0,5.7,2.5,3,1966,1,1,1,1,,1,5,1,9,5
https://nn.cian.ru/sale/flat/297487499/,2024-03-19 18:40:00,2750000,1,"Нижегородская область, Нижний Новгород, р-н Московский, мкр. Бурнаковский, Бригадная ул., 1в",56.3237827,43.92722854625518,Московский район,Nizhny Novgorod Oblast,Nizhny Novgorod,Бригадная улица,1В,1,2,1,31.1,18.1,6.6,,,1953,1,,1,,,,6,1,14,18
https://nn.cian.ru/sale/flat/299454733/,2024-03-19 18:40:00,3850000,1,"Нижегородская область, Нижний Новгород, р-н Ленинский, мкр. Ипподромный, Херсонская ул., 16",56.27263265,43.91108767273968,Ленинский район,Nizhny Novgorod Oblast,Nizhny Novgorod,Херсонская улица,16,4,5,1,30.4,18.6,6.0,,3,1964,1,,1,,,,9,2,18,13
https://nn.cian.ru/sale/flat/299342057/,2024-03-06 20:07:00,3600000,1,"Нижегородская область, Нижний Новгород, р-н Канавинский, мкр. Сортировочный, Путейская ул., 55",56.2959492,43.872833799999995,Канавинский район,Nizhny Novgorod Oblast,Nizhny Novgorod,Путейская улица,55,4,5,1,30.7,16.5,6.7,,3,1967,1,2,1,,,1,2,,3,3
https://nn.cian.ru/sale/flat/285590721/,2024-03-19 18:10:00,2900000,1,"Нижегородская область, Нижний Новгород, р-н Канавинский, мкр. Сортировочный, Гороховецкая ул., 24",56.28986555,43.85931990875059,Канавинский район,Nizhny Novgorod Oblast,Nizhny Novgorod,Гороховецкая улица,24,1,3,1,31.8,18.5,6.0,,3,1959,1,,,,,,5,1,7,5
https://nn.cian.ru/sale/flat/297302066/,2024-03-19 11:29:00,3450000,1,"Нижегородская область, Нижний Новгород, р-н Московский, мкр. Красные зори, Московское ш., 189",56.3142354,43.87486809816018,Московский район,Nizhny Novgorod Oblast,Nizhny Novgorod,Московское шоссе,189,5,5,1,30.0,17.3,5.4,,3,1959,1,,1,,,1,7,1,11,14
https://nn.cian.ru/sale/flat/299695143/,2024-03-17 19:48:00,3900000,1,"Нижегородская область, Нижний Новгород, р-н Автозаводский, мкр. Северный, просп. Бусыгина, 13",56.26379195,43.894660275616964,Автозаводский район,Nizhny Novgorod Oblast,Nizhny Novgorod,проспект Бусыгина,13,2,2,1,40.8,18.0,9.0,2.9,3,1948,5,2,1,1,,1,5,7,14,15
https://nn.cian.ru/sale/flat/299694052/,2024-03-17 18:39:00,3550000,1,"Нижегородская область, Нижний Новгород, р-н Советский, мкр. улица Бекетова, Агрономическая ул., 161",56.29623355,44.01454530891394,Советский район,Nizhny Novgorod Oblast,Nizhny Novgorod,Agronomicheskaya street,161,2,2,1,28.5,19.3,5.6,2.5,3,1957,1,1,1,1,,,5,5,7,12
https://nn.cian.ru/sale/flat/299675201/,2024-03-19 11:00:00,2900000,1,"Нижегородская область, Нижний Новгород, р-н Автозаводский, мкр. Мончегорский, ул. Спутника, 24",56.240594349999995,43.8275265,Автозаводский район,Nizhny Novgorod Oblast,Nizhny Novgorod,улица Спутника,24,1,3,1,25.6,16.0,4.6,,3,1960,,1,1,1,,,5,4,13,12
https://nn.cian.ru/sale/flat/299417804/,2024-03-09 18:49:00,3450000,1,"Нижегородская область, Нижний Новгород, р-н Сормовский, мкр. Светлоярский, ул. Станиславского, 36",56.3551999,43.837887362740005,Сормовский район,Nizhny Novgorod Oblast,Nizhny Novgorod,улица Станиславского,36,2,2,1,32.0,16.0,7.0,,2,1966,,1,1,,,1,7,7,15,14
https://nn.cian.ru/sale/flat/298842031/,2024-03-19 09:25:00,3200000,1,"Нижегородская область, Нижний Новгород, р-н Советский, мкр. улица Бекетова, Моховая ул., 6",56.2955075,44.0136969,Советский район,Nizhny Novgorod Oblast,Nizhny Novgorod,Моховая улица,6,3,3,1,27.6,17.2,5.4,,3,1958,1,,1,,,,5,3,7,12
https://nn.cian.ru/sale/flat/299649639/,2024-03-15 18:28:00,4000000,1,"Нижегородская область, Нижний Новгород, р-н Ленинский, мкр. Ипподромный, просп. Ленина, 59к3",56.2941373,43.9347819,Ленинский район,Nizhny Novgorod Oblast,Nizhny Novgorod,проспект Ленина,,3,5,1,30.3,19.0,5.4,2.53,3,1966,,1,1,,,1,14,5,17,12
https://nn.cian.ru/sale/flat/298939522/,2024-02-25 14:31:00,3950000,1,"Нижегородская область, Нижний Новгород, р-н Канавинский, мкр. Ленгородок, просп. Ленина, 5",56.2992589,43.93724137689527,Канавинский район,Nizhny Novgorod Oblast,Nizhny Novgorod,проспект Ленина,5,3,9,1,31.0,18.2,6.3,,3,1965,1,1,1,1,,,5,11,17,9
https://nn.cian.ru/sale/flat/299562082/,2024-03-19 16:33:00,3400000,1,"Нижегородская область, Нижний Новгород, р-н Сормовский, мкр. Светлоярский, ул. Станиславского, 40",56.3550556,43.839424449999996,Сормовский район,Nizhny Novgorod Oblast,Nizhny Novgorod,улица Станиславского,40,5,5,1,32.0,18.0,6.0,,3,1965,4,,1,,,1,6,7,17,16
https://nn.cian.ru/sale/flat/299329804/,2024-03-19 19:55:00,4000000,1,"Нижегородская область, Нижний Новгород, р-н Советский, мкр. Нагорный, ул. Вячеслава Шишкова, 8к2",56.2932809,44.042272167762015,Советский район,Nizhny Novgorod Oblast,Nizhny Novgorod,улица Вячеслава Шишкова,8 к2,1,5,1,30.2,16.3,5.9,,3,1964,1,,1,,,,5,3,15,10
https://nn.cian.ru/sale/flat/299250359/,2024-03-13 18:49:00,3650000,1,"Нижегородская область, Нижний Новгород, р-н Автозаводский, мкр. Северный, ул. Пермякова, 42",56.271758399999996,43.88011879241561,Автозаводский район,Nizhny Novgorod Oblast,Nizhny Novgorod,улица Пермякова,42,4,9,1,27.8,12.4,6.7,2.5,3,1986,1,2,1,1,1,1,6,6,13,13
https://nn.cian.ru/sale/flat/297758285/,2024-03-18 17:25:00,3150000,1,"Нижегородская область, Нижний Новгород, р-н Московский, мкр. Орджоникидзе, ул. Баранова, 11",56.334718249999995,43.84635172697419,Московский район,Nizhny Novgorod Oblast,Nizhny Novgorod,улица Баранова,11,7,9,1,28.5,18.1,5.3,,,1975,1,,1,,1,,4,3,15,19
https://nn.cian.ru/sale/flat/294872471/,2024-03-18 18:25:00,3850000,1,"Нижегородская область, Нижний Новгород, р-н Канавинский, мкр. Березовский, Касимовская ул., 17",56.3014288,43.8823051,Канавинский район,Nizhny Novgorod Oblast,Nizhny Novgorod,Касимовская улица,17,4,10,1,36.0,19.0,9.0,,3,1991,1,,1,,1,,1,,1,3
https://nn.cian.ru/sale/flat/298824121/,2024-03-19 15:10:00,4000000,1,"Нижегородская область, Нижний Новгород, р-н Нижегородский, мкр. Верхние Печеры, ул. Богдановича, 9к1",56.28259595,44.071792602215695,Нижегородский район,Nizhny Novgorod Oblast,Nizhny Novgorod,улица Богдановича,9 к1,1,4,1,62.0,27.0,30.0,,,,1,,2,,1,2,2,,8,3
https://nn.cian.ru/sale/flat/298801824/,2024-03-19 14:46:00,3200000,1,"Нижегородская область, Нижний Новгород, р-н Приокский, мкр. Дубенки, Ботаническая ул., 10",56.2492975,43.999322543521686,Приокский район,Nizhny Novgorod Oblast,Nizhny Novgorod,Ботаническая улица,10,1,3,1,29.8,14.0,7.0,,,,4,,1,,,,1,1,1,1
https://nn.cian.ru/sale/flat/298456678/,2024-03-19 12:55:00,3900000,1,"Нижегородская область, Нижний Новгород, р-н Московский, мкр. Бурнаковский, ул. Маршала Воронова, 20",56.326943150000005,43.92144858367446,Московский район,Nizhny Novgorod Oblast,Nizhny Novgorod,улица Маршала Воронова,20,3,9,1,28.8,16.8,7.0,2.7,2,1974,1,2,1,1,1,,7,1,16,17
https://nn.cian.ru/sale/flat/296926075/,2024-03-09 10:52:00,3600000,1,"Нижегородская область, Нижний Новгород, р-н Московский, мкр. Бурнаковский, ул. Маршала Воронова, 20",56.326943150000005,43.92144858367446,Московский район,Nizhny Novgorod Oblast,Nizhny Novgorod,улица Маршала Воронова,20,4,9,1,30.0,18.0,6.0,2.5,3,1974,1,1,1,1,1,,7,1,16,17
https://nn.cian.ru/sale/flat/299669457/,2024-03-17 11:32:00,3750000,1,"Нижегородская область, Нижний Новгород, р-н Сормовский, мкр. Дарьино, ул. Энгельса, 17",56.3440035,43.87038290191083,Сормовский район,Nizhny Novgorod Oblast,Nizhny Novgorod,улица Энгельса,17,5,5,1,32.4,18.3,5.3,,,1964,4,1,1,,,1,10,1,16,11
https://nn.cian.ru/sale/flat/290623602/,2024-03-18 14:10:00,3970000,1,"Нижегородская область, Нижний Новгород, р-н Сормовский, мкр. Центр Сормова, ул. Культуры, 12",56.348135049999996,43.85636693132828,Сормовский район,Nizhny Novgorod Oblast,Nizhny Novgorod,улица Культуры,12,5,9,1,33.3,20.0,6.5,,3,1972,1,,1,,1,,10,4,19,15
https://nn.cian.ru/sale/flat/297668587/,2024-03-18 12:25:00,3800000,1,"Нижегородская область, Нижний Новгород, р-н Сормовский, мкр. Центр Сормова, ул. Культуры, 14",56.3485892,43.85526,Сормовский район,Nizhny Novgorod Oblast,Nizhny Novgorod,улица Культуры,14,1,9,1,32.0,18.7,6.0,,3,1972,1,,1,,1,,10,4,18,15
https://nn.cian.ru/sale/flat/297581622/,2024-03-19 15:25:00,3800000,1,"Нижегородская область, Нижний Новгород, р-н Советский, мкр. Нагорный, ул. Богородского, 12",56.29388135000001,44.0495283,Советский район,Nizhny Novgorod Oblast,Nizhny Novgorod,улица Богородского,12,1,5,1,40.9,25.0,10.0,,3,1969,1,,1,,,,9,3,17,12
https://nn.cian.ru/sale/flat/298199028/,2024-03-10 18:12:00,3350000,1,"Нижегородская область, Нижний Новгород, р-н Московский, мкр. Орджоникидзе, ул. Баранова, 11",56.334718249999995,43.84635172697419,Московский район,Nizhny Novgorod Oblast,Nizhny Novgorod,улица Баранова,11,8,9,1,28.2,16.9,5.2,2.5,3,1975,1,,1,1,1,,4,3,15,19
https://nn.cian.ru/sale/flat/298604547/,2024-03-18 13:40:00,3850000,1,"Нижегородская область, Нижний Новгород, р-н Канавинский, мкр. Канавино, Витебская ул., 4",56.313912599999995,43.94123358407579,Канавинский район,Nizhny Novgorod Oblast,Nizhny Novgorod,Витебская улица,4,3,9,1,30.2,18.3,5.5,,3,1978,4,,1,,1,,5,6,15,11
https://nn.cian.ru/sale/flat/290623309/,2024-03-18 14:10:00,3400000,1,"Нижегородская область, Нижний Новгород, р-н Сормовский, мкр. 5-6-7 Сормова, ул. Гаугеля, 13",56.35774565,43.81314145380722,Сормовский район,Nizhny Novgorod Oblast,Nizhny Novgorod,улица Гаугеля,13,3,5,1,34.0,17.1,6.0,,3,1972,4,,1,,,1,9,,13,15
https://nn.cian.ru/sale/flat/290014912/,2024-03-19 20:55:00,3400000,1,"Нижегородская область, Нижний Новгород, р-н Автозаводский, мкр. Доскино, ул. Бубнова, 8",56.24730075,43.75097452595793,Автозаводский район,Nizhny Novgorod Oblast,Nizhny Novgorod,улица Бубнова,8,2,5,1,32.5,17.4,5.9,2.5,2,1976,4,,1,,,1,,,1,1
https://nn.cian.ru/sale/flat/298592307/,2024-03-18 10:40:00,3800000,1,"Нижегородская область, Нижний Новгород, р-н Автозаводский, мкр. Соцгород, ул. Советской Армии, 2",56.2572749,43.865763399826314,Автозаводский район,Nizhny Novgorod Oblast,Nizhny Novgorod,улица Советской Армии,2,3,5,1,32.9,19.1,6.0,,3,1968,4,,1,,,1,13,1,21,21
https://nn.cian.ru/sale/flat/298517675/,2024-03-19 13:49:00,3950000,1,"Нижегородская область, Нижний Новгород, р-н Московский, мкр. Бурнаковский, Сормовское ш., 19",56.322211249999995,43.92593620149215,Московский район,Nizhny Novgorod Oblast,Nizhny Novgorod,Сормовское шоссе,19,3,6,1,30.5,17.8,6.0,,3,1976,1,1,1,,,,7,1,16,17
https://nn.cian.ru/sale/flat/299775176/,2024-03-19 15:56:00,4100000,1,"Нижегородская область, Нижний Новгород, р-н Ленинский, мкр. Ипподромный, просп. Ленина, 59к8",56.2420394,43.8639371,Автозаводский район,Nizhny Novgorod Oblast,Nizhny Novgorod,проспект Ленина,,1,5,1,31.1,,5.4,,3,1968,5,,1,,,1,12,3,24,13
https://nn.cian.ru/sale/flat/299292407/,2024-03-19 11:10:00,3990000,1,"Нижегородская область, Нижний Новгород, р-н Автозаводский, мкр. Северный, ул. Дьяконова, 9к2",56.26089435,43.87438082186267,Автозаводский район,Nizhny Novgorod Oblast,Nizhny Novgorod,улица Дьяконова,9 к2,4,5,1,32.0,19.0,6.0,,3,1972,4,,1,,,1,9,5,18,20
https://nn.cian.ru/sale/flat/296113483/,2024-03-19 15:55:00,2500000,1,"Нижегородская область, Нижний Новгород, р-н Приокский, мкр. Щербинки, просп. Гагарина, 59",56.247067400000006,43.964820604471576,Приокский район,Nizhny Novgorod Oblast,Nizhny Novgorod,проспект Гагарина,59,1,2,1,35.0,21.0,9.0,2.2,3,,1,,1,,,,1,1,7,4
https://nn.cian.ru/sale/flat/294618414/,2024-03-19 13:55:00,3990000,1,"Нижегородская область, Нижний Новгород, р-н Автозаводский, мкр. Соцгород, ул. Строкина, 18А",56.25543605,43.845498186519336,Автозаводский район,Nizhny Novgorod Oblast,Nizhny Novgorod,улица Строкина,18А,2,9,1,32.0,17.0,8.8,,3,1981,4,,1,,1,,11,3,24,16
https://nn.cian.ru/sale/flat/298694732/,2024-03-18 12:33:00,3900000,1,"Нижегородская область, Нижний Новгород, р-н Сормовский, мкр. Центр Сормова, ул. Васенко, 1",56.3485758,43.8702402,Сормовский район,Nizhny Novgorod Oblast,Nizhny Novgorod,улица Васенко,1,4,5,1,31.5,19.0,5.0,2.6,,1967,4,1,1,,,1,9,2,13,7
https://nn.cian.ru/sale/flat/290243031/,2024-03-19 21:10:00,3900000,1,"Нижегородская область, Нижний Новгород, р-н Нижегородский, мкр. Центр, Ильинская ул., 31",56.325059350000004,43.991405762918795,Нижегородский район,Nizhny Novgorod Oblast,Nizhny Novgorod,Il'inskaya ul.,31,1,2,1,22.5,12.5,5.0,,,1917,1,,1,,,,12,6,10,7
https://nn.cian.ru/sale/flat/299792568/,2024-03-19 20:55:00,3950000,1,"Нижегородская область, Нижний Новгород, р-н Автозаводский, мкр. 6, Южное ш., 42А",56.228046649999996,43.87186452269529,Автозаводский район,Nizhny Novgorod Oblast,Nizhny Novgorod,Южное шоссе,42А,3,5,1,30.6,19.0,6.0,2.5,,1966,1,1,1,1,,1,12,,20,19
https://nn.cian.ru/sale/flat/293383503/,2024-03-19 17:32:00,3600000,1,"Нижегородская область, Нижний Новгород, р-н Автозаводский, мкр. Северный, просп. Бусыгина, 49",56.2729145,43.88301646923712,Автозаводский район,Nizhny Novgorod Oblast,Nizhny Novgorod,проспект Бусыгина,49,4,9,1,35.0,17.3,8.6,,,1986,1,,1,,1,1,5,5,12,11
https://nn.cian.ru/sale/flat/299463591/,2024-03-19 17:56:00,3100000,1,"Нижегородская область, Нижний Новгород, Кузнечиха жилой район, бул. 60-летия Октября, 4",,,,,,,,1,5,1,29.0,18.0,5.5,,3,1972,1,,,,,,,,,
https://nn.cian.ru/sale/flat/298503078/,2024-03-18 10:10:00,3310000,1,"Нижегородская область, Нижний Новгород, р-н Московский, мкр. Авиационный, ул. Чаадаева, 34",56.3305386,43.836622940471244,Московский район,Nizhny Novgorod Oblast,Nizhny Novgorod,улица Чаадаева,34,5,5,1,29.7,18.6,6.0,,3,1965,1,1,1,,,,4,2,10,13
https://nn.cian.ru/sale/flat/295845395/,2024-02-29 14:00:00,3430000,1,"Нижегородская область, Нижний Новгород, р-н Канавинский, мкр. Агрокомбинат Горьковский, Тепличная ул., 10",56.310013049999995,43.8089361588156,Канавинский район,Nizhny Novgorod Oblast,Nizhny Novgorod,Тепличная улица,10,5,5,1,30.4,16.7,6.0,2.5,2,1973,1,1,1,1,,1,,,1,1
https://nn.cian.ru/sale/flat/299773373/,2024-03-19 21:57:00,3800000,1,"Нижегородская область, Нижний Новгород, р-н Автозаводский, мкр. Северный, ул. Пермякова, 32",56.270384449999995,43.878219134966514,Автозаводский район,Nizhny Novgorod Oblast,Nizhny Novgorod,улица Пермякова,32,9,9,1,27.8,12.9,7.0,2.5,3,1985,1,,1,,1,1,7,7,15,14
https://nn.cian.ru/sale/flat/298355070/,2024-03-18 17:40:00,3190000,1,"Нижегородская область, Нижний Новгород, р-н Московский, мкр. Бурнаковский, ул. Шаляпина, 6",56.3260076,43.91609471815574,Московский район,Nizhny Novgorod Oblast,Nizhny Novgorod,улица Шаляпина,6,4,4,1,25.1,15.7,4.4,,,1962,1,,1,,,1,3,1,14,12
https://nn.cian.ru/sale/flat/299079356/,2024-03-19 01:55:00,3850000,1,"Нижегородская область, Нижний Новгород, р-н Сормовский, мкр. Центр Сормова, ул. Льва Толстого, 1",56.3509301,43.8639193,Сормовский район,Nizhny Novgorod Oblast,Nizhny Novgorod,улица Льва Толстого,1,5,5,1,32.0,19.0,5.5,,3,1969,4,,1,,,,10,6,18,11
https://nn.cian.ru/sale/flat/294776967/,2024-03-18 13:55:00,3390000,1,"Нижегородская область, Нижний Новгород, р-н Советский, мкр. улица Бекетова, ул. Бекетова, 23А",56.291378449999996,44.00591900265009,Советский район,Nizhny Novgorod Oblast,Nizhny Novgorod,улица Бекетова,23А,2,2,1,27.7,17.7,5.0,,3,1959,1,,1,,,,5,5,10,13
https://nn.cian.ru/sale/flat/295913242/,2024-03-19 14:25:00,3070000,1,"Нижегородская область, Нижний Новгород, р-н Сормовский, мкр. Комсомольский, ул. Василия Иванова, 19",56.362931599999996,43.824469400000005,Сормовский район,Nizhny Novgorod Oblast,Nizhny Novgorod,улица Василия Иванова,19,4,4,1,34.0,17.0,6.0,,3,1960,1,,1,,,,8,1,14,16
https://nn.cian.ru/sale/flat/292497590/,2024-03-18 13:10:00,3650000,1,"Нижегородская область, Нижний Новгород, р-н Автозаводский, мкр. 6, Южное ш., 30А",56.226792700000004,43.866791241252486,Автозаводский район,Nizhny Novgorod Oblast,Nizhny Novgorod,Южное шоссе,30А,3,5,1,33.0,18.0,6.5,,3,1967,4,,1,,,1,12,,23,19
https://nn.cian.ru/sale/flat/290931018/,2024-03-19 22:10:00,3650000,1,"Нижегородская область, Нижний Новгород, р-н Ленинский, мкр. Молитовка, просп. Ленина, 28к6",56.288093950000004,43.936146913362705,Ленинский район,Nizhny Novgorod Oblast,Nizhny Novgorod,проспект Ленина,28 к6,1,5,1,31.3,18.9,5.8,,3,1969,,,1,,,,15,4,26,17
https://nn.cian.ru/sale/flat/296375025/,2024-03-18 13:33:00,3100000,1,"Нижегородская область, Нижний Новгород, р-н Сормовский, мкр. Народный, Красносормовская ул., 9",56.382482949999996,43.788180499999996,Сормовский район,Nizhny Novgorod Oblast,Nizhny Novgorod,Красносормовская улица,9,2,2,1,32.8,21.1,5.0,,3,1957,5,,1,,,,1,,4,2
https://nn.cian.ru/sale/flat/299470050/,2024-03-11 16:45:00,3490000,1,"Нижегородская область, Нижний Новгород, р-н Московский, мкр. Спортивный, ул. 50-летия Победы, 17",56.32749225,43.883521599999995,Московский район,Nizhny Novgorod Oblast,Nizhny Novgorod,улица 50-летия Победы,17,3,4,1,20.2,11.0,5.0,,3,1959,1,2,,,,,10,4,12,12
https://nn.cian.ru/sale/flat/299759429/,2024-03-19 13:13:00,3300000,1,"Нижегородская область, Нижний Новгород, р-н Сормовский, мкр. 5-6-7 Сормова, ул. Героев космоса, 50",56.361914049999996,43.81627381183739,Сормовский район,Nizhny Novgorod Oblast,Nizhny Novgorod,улица Героев Космоса,50,4,9,1,30.0,18.0,5.0,2.5,,1974,1,,,,1,,10,1,17,18
https://nn.cian.ru/sale/flat/298452189/,2024-03-19 11:25:00,3200000,1,"Нижегородская область, Нижний Новгород, р-н Советский, мкр. Тобольские казармы, Краснозвездная ул., 10А",56.288531649999996,43.9854599,Советский район,Nizhny Novgorod Oblast,Nizhny Novgorod,Краснозвёздная улица,10А,2,2,1,31.4,21.0,4.5,2.7,3,1961,1,,1,,,,2,3,11,6
https://nn.cian.ru/sale/flat/298868017/,2024-03-17 14:04:00,3890000,1,"Нижегородская область, Нижний Новгород, р-н Московский, мкр. Бурнаковский, ул. Куйбышева, 21",56.32950175,43.91491595,Московский район,Nizhny Novgorod Oblast,Nizhny Novgorod,улица Куйбышева,21,3,5,1,32.2,18.0,5.0,2.6,3,1917,4,1,1,1,,1,3,1,13,13
https://nn.cian.ru/sale/flat/299713823/,2024-03-18 11:46:00,3800000,1,"Нижегородская область, Нижний Новгород, р-н Московский, мкр. Московский проспект, просп. Героев, 30",56.317887150000004,43.88951096851797,Московский район,Nizhny Novgorod Oblast,Nizhny Novgorod,проспект Героев,30,3,4,1,30.3,18.0,5.6,,2,1962,,1,1,1,,1,9,2,11,11
https://nn.cian.ru/sale/flat/297125670/,2024-03-19 16:22:00,3000000,1,"Нижегородская область, Нижний Новгород, р-н Автозаводский, мкр. Северный, ул. Дружаева, 15",56.265126,43.87612512138337,Автозаводский район,Nizhny Novgorod Oblast,Nizhny Novgorod,улица Дружаева,15,3,9,1,22.0,11.9,5.2,2.5,3,1978,1,2,1,,1,,9,5,16,17
https://nn.cian.ru/sale/flat/299794439/,2024-03-19 21:52:00,3899999,1,"Нижегородская область, Нижний Новгород, р-н Автозаводский, мкр. Соцгород, Молодежный просп., 42",56.2444541,43.84131397965042,Автозаводский район,Nizhny Novgorod Oblast,Nizhny Novgorod,Молодёжный проспект,42,1,5,1,30.6,18.3,5.8,2.5,3,1963,1,1,,,,,9,4,15,13
https://nn.cian.ru/sale/flat/296558110/,2024-03-19 13:59:00,3850000,1,"Нижегородская область, Нижний Новгород, р-н Приокский, мкр. Щербинки, ул. Маршала Голованова, 69",56.2292621,43.95220978770588,Приокский район,Nizhny Novgorod Oblast,Nizhny Novgorod,улица Маршала Голованова,69,6,9,1,29.8,18.1,5.6,,3,1979,1,,1,,1,,4,3,14,10
https://nn.cian.ru/sale/flat/297486176/,2024-03-19 19:55:00,4000000,1,"Нижегородская область, Нижний Новгород, р-н Ленинский, мкр. Ипподромный, просп. Ленина, 57к2",56.2769522,43.9162574,Ленинский район,Nizhny Novgorod Oblast,Nizhny Novgorod,проспект Ленина,57 к2,5,5,1,30.8,19.0,5.4,2.5,3,1966,,,1,,,1,10,1,19,15
https://nn.cian.ru/sale/flat/295897624/,2024-03-14 20:15:00,3400000,1,"Нижегородская область, Нижний Новгород, р-н Ленинский, мкр. Дачный, Завкомовская ул., 6",56.302683349999995,43.91084379534931,Ленинский район,Nizhny Novgorod Oblast,Nizhny Novgorod,Завкомовская улица,6,3,5,1,30.6,18.0,6.0,2.5,3,1964,1,1,1,1,,,2,1,2,1
https://nn.cian.ru/sale/flat/298905683/,2024-03-18 13:40:00,2990000,1,"Нижегородская область, Нижний Новгород, Березовская ул., 89А",56.3319614,43.874101400379715,Московский район,Nizhny Novgorod Oblast,Nizhny Novgorod,Берёзовская улица,89А,6,9,1,20.3,11.3,4.0,,3,1975,1,,1,,1,1,10,5,15,12
https://nn.cian.ru/sale/flat/296608318/,2024-03-19 12:11:00,2100000,1,"Нижегородская область, Нижний Новгород, р-н Канавинский, мкр. Агрокомбинат Горьковский, Московское ш., 326",56.309311,43.80371055242125,Канавинский район,Nizhny Novgorod Oblast,Nizhny Novgorod,Московское шоссе,326,1,3,1,31.6,21.1,4.0,,3,1958,,1,1,,,,,,1,1
https://nn.cian.ru/sale/flat/298889842/,2024-03-16 12:44:00,3950000,1,"Нижегородская область, Нижний Новгород, р-н Советский, мкр. улица Бекетова, ул. Шорина, 13",56.2936127,43.998865550000005,Советский район,Nizhny Novgorod Oblast,Nizhny Novgorod,Shorina ul.,13,2,2,1,32.0,22.0,5.0,2.8,2,1959,1,1,1,1,,,6,5,10,11
https://nn.cian.ru/sale/flat/299775107/,2024-03-19 15:55:00,3200000,1,"Нижегородская область, Нижний Новгород, р-н Сормовский, мкр. поселок Новый, ул. Федосеенко, 100",56.34741625,43.803349280060736,Сормовский район,Nizhny Novgorod Oblast,Nizhny Novgorod,улица Федосеенко,100,1,5,1,33.4,18.9,5.7,,,1985,1,,1,,,,,,1,
https://nn.cian.ru/sale/flat/297450685/,2024-03-19 13:40:00,3140000,1,"Нижегородская область, Нижний Новгород, р-н Ленинский, мкр. Карповка, ул. Героя Попова, 6",56.2577838,43.92228745,Ленинский район,Nizhny Novgorod Oblast,Nizhny Novgorod,улица Героя Попова,6,4,5,1,30.0,18.0,5.0,2.55,,1973,,1,1,,,,1,,5,6
https://nn.cian.ru/sale/flat/298139501/,2024-03-19 20:16:00,3380000,1,"Нижегородская область, Нижний Новгород, р-н Сормовский, мкр. 5-6-7 Сормова, ул. Баренца, 6",56.368947,43.82163572296981,Сормовский район,Nizhny Novgorod Oblast,Nizhny Novgorod,улица Баренца,6,5,5,1,30.0,18.0,6.0,,3,1968,,,1,,,1,5,,13,13
https://nn.cian.ru/sale/flat/293368121/,2024-03-18 13:40:00,3900000,1,"Нижегородская область, Нижний Новгород, р-н Сормовский, мкр. Вождей Революции, ул. Римского-Корсакова, 53",56.3527822,43.84412953991601,Сормовский район,Nizhny Novgorod Oblast,Nizhny Novgorod,улица Римского-Корсакова,53,4,9,1,26.2,13.2,8.0,2.6,2,1995,1,1,,,1,,7,8,19,15
https://nn.cian.ru/sale/flat/299710316/,2024-03-18 10:14:00,3500000,1,"Нижегородская область, Нижний Новгород, р-н Московский, мкр. Орджоникидзе, ул. Ярошенко, 13",56.3336349,43.853067,Московский район,Nizhny Novgorod Oblast,Nizhny Novgorod,улица Ярошенко,13,1,5,1,31.0,18.0,5.7,2.5,3,1959,1,1,1,1,,,4,3,15,19
https://nn.cian.ru/sale/flat/298987893/,2024-02-26 20:38:00,3860000,1,"Нижегородская область, Нижний Новгород, р-н Приокский, мкр. Щербинки, ул. Маршала Голованова, 73",56.22881915,43.94959403952015,Приокский район,Nizhny Novgorod Oblast,Nizhny Novgorod,улица Маршала Голованова,73,4,9,1,29.6,18.0,5.5,2.5,3,1978,1,1,1,,1,,4,3,13,10
https://nn.cian.ru/sale/flat/295433264/,2024-03-18 22:25:00,3800000,1,"Нижегородская область, Нижний Новгород, р-н Советский, мкр. Кузнечиха, бул. 60-летия Октября, 4",56.28364905,44.050949357671456,Советский район,Nizhny Novgorod Oblast,Nizhny Novgorod,бульвар 60-летия Октября,4,3,6,1,29.2,17.3,5.3,,3,1972,1,,1,,,1,6,2,11,10
https://nn.cian.ru/sale/flat/289104854/,2024-03-19 20:55:00,3250000,1,"Нижегородская область, Нижний Новгород, р-н Сормовский, мкр. 5-6-7 Сормова, ул. Гаугеля, 13",56.35774565,43.81314145380722,Сормовский район,Nizhny Novgorod Oblast,Nizhny Novgorod,улица Гаугеля,13,3,5,1,33.0,17.5,6.5,,3,1972,4,,1,,,,9,,13,15
https://nn.cian.ru/sale/flat/294561683/,2024-03-19 11:16:00,3300000,1,"Нижегородская область, Нижний Новгород, р-н Сормовский, мкр. Светлоярский, Светлоярская ул., 14",56.352754950000005,43.834224475436756,Сормовский район,Nizhny Novgorod Oblast,Nizhny Novgorod,Светлоярская улица,14,2,3,1,30.5,,,,3,1959,1,,,,,,7,6,11,15
https://nn.cian.ru/sale/flat/299164746/,2024-03-19 21:57:00,3500000,1,"Нижегородская область, Нижний Новгород, р-н Московский, мкр. Московский проспект, Березовская ул., 22",56.3187201,43.88141493328387,Московский район,Nizhny Novgorod Oblast,Nizhny Novgorod,Берёзовская улица,22,2,9,1,26.6,13.0,7.9,,3,1988,1,,1,,1,1,10,3,15,13
https://nn.cian.ru/sale/flat/296086842/,2024-03-17 17:37:00,3000000,1,"Нижегородская область, Нижний Новгород, р-н Автозаводский, мкр. Мончегорский, ул. Спутника, 24",56.240594349999995,43.8275265,Автозаводский район,Nizhny Novgorod Oblast,Nizhny Novgorod,улица Спутника,24,3,3,1,25.7,16.0,5.0,2.6,2,1960,,1,1,1,,,5,4,13,12
https://nn.cian.ru/sale/flat/298089449/,2024-03-19 08:10:00,3980000,1,"Нижегородская область, Нижний Новгород, р-н Автозаводский, мкр. Соцгород, ул. Строкина, 18",56.25582665,43.84314930787529,Автозаводский район,Nizhny Novgorod Oblast,Nizhny Novgorod,улица Строкина,18,4,9,1,33.0,17.0,8.0,,3,1981,4,,1,,1,,12,2,22,12
https://nn.cian.ru/sale/flat/297895042/,2024-03-19 13:49:00,3899000,1,"Нижегородская область, Нижний Новгород, р-н Московский, мкр. Красные зори, ул. Александра Люкина, 6",56.31728985,43.87716265,Московский район,Nizhny Novgorod Oblast,Nizhny Novgorod,улица Александра Люкина,6,2,9,1,35.9,17.7,7.7,,3,1987,1,,1,,1,2,10,1,13,15
https://nn.cian.ru/sale/flat/298561035/,2024-03-19 15:10:00,3900000,1,"Нижегородская область, Нижний Новгород, р-н Автозаводский, мкр. 6, ул. Веденяпина, 25",56.2296712,43.87862677809388,Автозаводский район,Nizhny Novgorod Oblast,Nizhny Novgorod,улица Веденяпина,25,1,9,1,30.7,18.0,6.0,2.5,3,1976,4,2,1,,1,1,8,,14,16
https://nn.cian.ru/sale/flat/294022996/,2024-03-17 13:17:00,2800000,1,"Нижегородская область, Нижний Новгород, р-н Нижегородский, мкр. Центр, ул. Ульянова, 42/16",56.3235187,44.0213616,Нижегородский район,Nizhny Novgorod Oblast,Nizhny Novgorod,улица Ульянова,,2,2,1,29.8,19.5,4.0,,3,1917,,,1,,,,14,9,17,11
https://nn.cian.ru/sale/flat/295832586/,2024-03-18 13:36:00,3500000,1,"Нижегородская область, Нижний Новгород, р-н Советский, мкр. улица Бекетова, ул. Шорина, 20",56.2943056,43.997488201774836,Советский район,Nizhny Novgorod Oblast,Nizhny Novgorod,Shorina ul.,20,1,2,1,28.0,17.0,6.0,,3,1957,1,,1,,,1,5,5,10,11
https://nn.cian.ru/sale/flat/298879467/,2024-03-18 19:40:00,3600000,1,"Нижегородская область, Нижний Новгород, р-н Автозаводский, мкр. Соцгород, Соцгород-1 микрорайон, ул. Комсомольская, 2В",,,,,,,,3,5,1,30.9,17.0,6.0,2.7,,1959,1,1,1,,,1,,,,
https://nn.cian.ru/sale/flat/299765402/,2024-03-19 13:10:00,3950000,1,"Нижегородская область, Нижний Новгород, р-н Советский, мкр. Нагорный, ул. Ванеева, 106",56.291612900000004,44.03788812004923,Советский район,Nizhny Novgorod Oblast,Nizhny Novgorod,Vaneeva ul.,106,1,5,1,31.1,17.5,6.0,,3,1965,1,,1,,,,6,3,18,9
https://nn.cian.ru/sale/flat/296468726/,2024-03-18 15:00:00,3430000,1,"Нижегородская область, Нижний Новгород, р-н Автозаводский, мкр. Мостоотряд, 34",56.3269958,44.0051341,Нижегородский район,Nizhny Novgorod Oblast,Nizhny Novgorod,площадь Минина и Пожарского,,4,5,1,36.6,18.0,10.5,2.55,3,1993,1,1,1,,,1,14,6,13,9
https://nn.cian.ru/sale/flat/298482442/,2024-03-19 19:25:00,3100000,1,"Нижегородская область, Нижний Новгород, Путейская ул., 37",56.293934500000006,43.86597797896678,Канавинский район,Nizhny Novgorod Oblast,Nizhny Novgorod,Путейская улица,37,3,4,1,30.7,17.9,5.2,2.6,3,1963,1,,1,,,1,6,1,5,5
https://nn.cian.ru/sale/flat/299288845/,2024-03-05 16:39:00,3700000,1,"Нижегородская область, Нижний Новгород, р-н Автозаводский, мкр. Северный, ул. Мельникова, 18",56.26193455000001,43.89290085101731,Автозаводский район,Nizhny Novgorod Oblast,Nizhny Novgorod,улица Мельникова,18,1,5,1,32.8,17.4,5.9,,3,1973,4,,,,,,5,8,14,13
https://nn.cian.ru/sale/flat/299135879/,2024-03-19 14:40:00,3200000,1,"Нижегородская область, Нижний Новгород, р-н Советский, мкр. улица Бекетова, Юбилейная ул., 36",56.29289125,44.02408834810558,Советский район,Nizhny Novgorod Oblast,Nizhny Novgorod,Ubileinaya street,36,1,5,1,21.5,11.1,5.4,2.5,3,1975,1,1,1,,,,5,4,10,10
https://nn.cian.ru/sale/flat/292306464/,2024-03-06 12:27:00,3700000,1,"Нижегородская область, Нижний Новгород, р-н Сормовский, мкр. поселок Новый, ул. Федосеенко, 95",56.345977700000006,43.80201965000002,Сормовский район,Nizhny Novgorod Oblast,Nizhny Novgorod,улица Федосеенко,95,3,5,1,30.1,17.2,6.4,2.5,3,1969,1,,1,,,1,,,1,
https://nn.cian.ru/sale/flat/297011798/,2024-03-11 14:54:00,2890000,1,"Нижегородская область, Нижний Новгород, р-н Канавинский, мкр. Сортировочный, Запрудная ул., 2",56.2917591,43.841386564727216,Канавинский район,Nizhny Novgorod Oblast,Nizhny Novgorod,Запрудная улица,2,6,9,1,20.8,11.5,5.6,2.57,3,1979,1,1,1,,1,1,4,1,7,3
https://nn.cian.ru/sale/flat/299642433/,2024-03-19 15:40:00,3850000,1,"Нижегородская область, Нижний Новгород, р-н Автозаводский, мкр. Автозавод, ул. Лескова, 3",56.2368214,43.8669276,Автозаводский район,Nizhny Novgorod Oblast,Nizhny Novgorod,улица Лескова,3,4,5,1,33.1,17.0,6.0,,3,1962,1,,1,,,1,10,3,24,17
https://nn.cian.ru/sale/flat/298973149/,2024-03-19 15:01:00,3990000,1,"Нижегородская область, Нижний Новгород, р-н Ленинский, мкр. Красная Этна, ул. Энтузиастов, 8",56.28577225,43.923146332803626,Ленинский район,Nizhny Novgorod Oblast,Nizhny Novgorod,улица Энтузиастов,8,4,5,1,32.2,18.5,6.1,,3,1962,1,2,1,,,1,9,5,19,13
https://nn.cian.ru/sale/flat/297342741/,2024-03-10 16:12:00,3600000,1,"Нижегородская область, Нижний Новгород, р-н Автозаводский, мкр. Северный, ул. Пермякова, 28",56.27090765,43.87624994308102,Автозаводский район,Nizhny Novgorod Oblast,Nizhny Novgorod,улица Пермякова,28,2,9,1,35.3,17.5,9.6,2.48,3,1985,1,1,1,1,1,1,7,4,13,11
https://nn.cian.ru/sale/flat/299204607/,2024-03-18 08:10:00,3980000,1,"Нижегородская область, Нижний Новгород, р-н Советский, мкр. улица Бекетова, Юбилейная ул., 10",56.2902765,44.00691975,Советский район,Nizhny Novgorod Oblast,Nizhny Novgorod,Ubileinaya street,10,3,3,1,31.4,20.8,4.5,,,1960,1,,1,,,,5,5,10,12
https://nn.cian.ru/sale/flat/298869271/,2024-03-18 13:55:00,3500000,1,"Нижегородская область, Нижний Новгород, р-н Ленинский, мкр. Молитовка, Заводская ул., 15к1",56.2806181,43.95060316727165,Ленинский район,Nizhny Novgorod Oblast,Nizhny Novgorod,Заводская улица,15 к1,5,5,1,30.6,18.6,5.8,,,1917,,1,1,,,,9,1,14,9
https://nn.cian.ru/sale/flat/299799813/,2024-03-20 01:19:00,3700000,1,"Нижегородская область, Нижний Новгород, р-н Приокский, мкр. Щербинки, Щербинки-1 микрорайон, 12",56.239682650000006,43.969402099999996,Приокский район,Nizhny Novgorod Oblast,Nizhny Novgorod,,12,1,5,1,30.3,14.5,6.2,,,1962,1,,1,,,,3,3,13,9
https://nn.cian.ru/sale/flat/292229656/,2024-03-19 13:25:00,2150000,1,"Нижегородская область, Нижний Новгород, р-н Сормовский, мкр. Народный, Планетная ул., 20Б",56.3806063,43.78429903625258,Сормовский район,Nizhny Novgorod Oblast,Nizhny Novgorod,Планетная улица,20Б,1,2,1,31.1,19.5,3.9,,3,,1,2,1,,,,1,,3,2
https://nn.cian.ru/sale/flat/298391959/,2024-03-19 15:25:00,2800000,1,"Нижегородская область, Нижний Новгород, р-н Сормовский, мкр. Народный, Планетная ул., 26",56.379474,43.79207,Сормовский район,Nizhny Novgorod Oblast,Nizhny Novgorod,Планетная улица,26,2,2,1,33.8,22.7,5.1,,3,1958,5,,1,,,,1,,4,2
https://nn.cian.ru/sale/flat/292929910/,2024-03-19 15:40:00,3500000,1,"Нижегородская область, Нижний Новгород, р-н Нижегородский, мкр. Центр, ул. Пискунова, 9в",56.323722450000005,44.00359549015271,Нижегородский район,Nizhny Novgorod Oblast,Nizhny Novgorod,улица Пискунова,9В,3,3,1,36.3,16.3,15.0,,,1917,,,,,,,19,7,17,12
https://nn.cian.ru/sale/flat/299139064/,2024-03-18 16:25:00,3250000,1,"Нижегородская область, Нижний Новгород, р-н Автозаводский, мкр. Соцгород, Красноуральская ул., 32",56.2470113,43.8293646,Автозаводский район,Nizhny Novgorod Oblast,Nizhny Novgorod,Красноуральская улица,32,2,2,1,29.9,18.0,6.1,,2,1948,,,1,,,,3,3,6,10
https://nn.cian.ru/sale/flat/299506320/,2024-03-19 14:40:00,3500000,1,"Нижегородская область, Нижний Новгород, р-н Московский, мкр. Московский проспект, Березовская ул., 20",56.3181429,43.88140439719404,Московский район,Nizhny Novgorod Oblast,Nizhny Novgorod,Берёзовская улица,20,6,9,1,26.3,13.0,7.7,,,1987,1,,1,,,1,10,2,13,13
https://nn.cian.ru/sale/flat/297528724/,2024-02-21 10:43:00,3300000,1,"Нижегородская область, Нижний Новгород, р-н Сормовский, мкр. 5-6-7 Сормова, ул. Героев космоса, 32",56.3607328,43.818282269953535,Сормовский район,Nizhny Novgorod Oblast,Nizhny Novgorod,улица Героев Космоса,32,5,9,1,30.0,18.0,5.0,2.5,,1974,1,,1,1,1,,9,1,19,17
https://nn.cian.ru/sale/flat/295978946/,2024-03-18 15:25:00,3380000,1,"Нижегородская область, Нижний Новгород, р-н Московский, мкр. Бурнаковский, ул. Маршала Воронова, 18",56.3264019,43.92253759982994,Московский район,Nizhny Novgorod Oblast,Nizhny Novgorod,улица Маршала Воронова,18,2,9,1,29.0,18.0,5.0,,,1973,1,,1,,1,,7,1,17,17
https://nn.cian.ru/sale/flat/298568242/,2024-03-19 18:21:00,2920000,1,"Нижегородская область, Нижний Новгород, р-н Автозаводский, мкр. Доскино, ул. Бубнова, 7",56.24811165,43.75080965,Автозаводский район,Nizhny Novgorod Oblast,Nizhny Novgorod,улица Бубнова,7,1,5,1,30.4,17.1,6.5,,3,1973,1,,1,,1,,1,,1,1
https://nn.cian.ru/sale/flat/298574091/,2024-02-19 11:19:00,3400000,1,"Нижегородская область, Нижний Новгород, р-н Автозаводский, мкр. Мончегорский, ул. Мончегорская, 16А",56.233324249999995,43.82836950480894,Автозаводский район,Nizhny Novgorod Oblast,Nizhny Novgorod,Мончегорская улица,16А,2,9,1,28.5,17.4,5.2,2.5,,1977,1,1,1,1,1,,5,1,15,12
https://nn.cian.ru/sale/flat/297450477/,2024-03-19 13:17:00,3150000,1,"Нижегородская область, Нижний Новгород, р-н Советский, мкр. Высоково, ул. Бориса Панина, 19",56.3109523,44.03354736576384,Советский район,Nizhny Novgorod Oblast,Nizhny Novgorod,Borisa Panina ul.,19,1,5,1,23.7,15.7,3.0,,3,1969,1,,1,,,,5,3,13,11
https://nn.cian.ru/sale/flat/298157308/,2024-03-18 19:26:00,3749999,1,"Нижегородская область, Нижний Новгород, р-н Московский, мкр. Бурнаковский, ул. Маршала Воронова, 20",56.326943150000005,43.92144858367446,Московский район,Nizhny Novgorod Oblast,Nizhny Novgorod,улица Маршала Воронова,20,4,9,1,29.1,17.0,5.0,,3,1974,1,,1,,,1,7,1,16,17
https://nn.cian.ru/sale/flat/299251960/,2024-03-04 19:24:00,2850000,1,"Нижегородская область, Нижний Новгород, р-н Приокский, мкр. Дубенки, ул. Глазунова, 11",56.262586799999994,43.98703625,Приокский район,Nizhny Novgorod Oblast,Nizhny Novgorod,улица Глазунова,11,1,2,1,30.7,21.0,4.5,,3,1958,,,1,,,,6,2,8,12
https://nn.cian.ru/sale/flat/296400062/,2024-03-18 17:55:00,3300000,1,"Нижегородская область, Нижний Новгород, р-н Сормовский, мкр. Кооперативный поселок, Травяная ул., 25",56.3415818,43.824299350000004,Сормовский район,Nizhny Novgorod Oblast,Nizhny Novgorod,Травяная улица,25,1,2,1,32.0,22.0,5.0,,2,1959,5,,1,,,,3,,4,8
https://nn.cian.ru/sale/flat/298917872/,2024-03-18 19:40:00,3300000,1,"Нижегородская область, Нижний Новгород, р-н Канавинский, мкр. Сортировочный, ул. Лесной городок, 1",56.30589275,43.844561150059356,Канавинский район,Nizhny Novgorod Oblast,Nizhny Novgorod,улица Лесной Городок,1,3,9,1,37.0,18.0,10.0,,,1988,,1,1,1,1,,1,,4,1
https://nn.cian.ru/sale/flat/299289605/,2024-03-05 16:52:00,4000000,1,"Нижегородская область, Нижний Новгород, р-н Автозаводский, мкр. Северный, ул. Львовская, 21",56.2704841,43.88115960562166,Автозаводский район,Nizhny Novgorod Oblast,Nizhny Novgorod,Львовская улица,21,6,9,1,35.6,18.0,8.9,,3,1988,1,1,1,1,1,1,7,6,15,14
https://nn.cian.ru/sale/flat/298212968/,2024-03-19 16:11:00,3100000,1,"Нижегородская область, Нижний Новгород, р-н Московский, мкр. Красные зори, Московское ш., 211",56.31560815,43.874351464963894,Московский район,Nizhny Novgorod Oblast,Nizhny Novgorod,Московское шоссе,211,1,5,1,31.3,18.3,5.6,2.6,,1962,4,2,1,1,,,8,1,12,15
https://nn.cian.ru/sale/flat/299566902/,2024-03-18 16:31:00,2650000,1,"Нижегородская область, Нижний Новгород, р-н Сормовский, мкр. Народный, Планетная ул., 3",56.380613,43.79097786139638,Сормовский район,Nizhny Novgorod Oblast,Nizhny Novgorod,Планетная улица,3,2,2,1,33.5,23.2,5.3,,3,1958,5,1,1,,,,1,,4,2
https://nn.cian.ru/sale/flat/296251454/,2024-03-19 17:32:00,3850000,1,"Нижегородская область, Нижний Новгород, р-н Сормовский, мкр. Центр Сормова, Юбилейный бул., 13",56.3456064,43.86164422152197,Сормовский район,Nizhny Novgorod Oblast,Nizhny Novgorod,Юбилейный бульвар,13,3,5,1,31.5,19.0,5.0,,3,1932,3,,1,,,1,12,2,18,15
https://nn.cian.ru/sale/flat/290290880/,2024-03-13 18:16:00,3290000,1,"Нижегородская область, Нижний Новгород, р-н Московский, мкр. Спортивный, ул. 50-летия Победы, 15",56.32826325,43.88384555,Московский район,Nizhny Novgorod Oblast,Nizhny Novgorod,улица 50-летия Победы,15,1,4,1,35.3,23.7,6.0,3.0,3,1959,1,1,,,2,,11,4,13,13
https://nn.cian.ru/sale/flat/298338887/,2024-03-19 17:00:00,3500000,1,"Нижегородская область, Нижний Новгород, р-н Автозаводский, мкр. Северный, ул. Дружаева, 17А",56.2653027,43.874440162796716,Автозаводский район,Nizhny Novgorod Oblast,Nizhny Novgorod,улица Дружаева,17А,8,9,1,28.7,18.4,5.3,2.5,3,1988,1,1,,,,,9,5,16,18
https://nn.cian.ru/sale/flat/299244680/,2024-03-04 16:19:00,3800000,1,"Нижегородская область, Нижний Новгород, р-н Советский, мкр. Кузнечиха, бул. 60-летия Октября, 4",56.28364905,44.050949357671456,Советский район,Nizhny Novgorod Oblast,Nizhny Novgorod,бульвар 60-летия Октября,4,2,6,1,29.1,17.2,5.6,2.5,3,1972,1,2,1,1,,1,6,2,11,10
https://nn.cian.ru/sale/flat/294594703/,2024-03-18 20:40:00,3200000,1,"Нижегородская область, Нижний Новгород, р-н Автозаводский, мкр. Мончегорский, ул. Мончегорская, 2А",56.235817,43.833816049999996,Автозаводский район,Nizhny Novgorod Oblast,Nizhny Novgorod,Мончегорская улица,2А,6,9,1,29.7,15.9,6.4,,3,1972,1,,1,,,1,8,1,18,16
https://nn.cian.ru/sale/flat/295184016/,2024-03-18 13:40:00,3899999,1,"Нижегородская область, Нижний Новгород, р-н Канавинский, мкр. Канавино, Витебская ул., 4",56.313912599999995,43.94123358407579,Канавинский район,Nizhny Novgorod Oblast,Nizhny Novgorod,Витебская улица,4,4,9,1,30.0,18.1,5.4,,3,1978,4,,1,,1,1,5,6,15,11
https://nn.cian.ru/sale/flat/296770404/,2024-03-19 16:25:00,2170000,1,"Нижегородская область, Нижний Новгород, р-н Ленинский, мкр. Двигатель Революции, ул. Адмирала Нахимова, 28",56.26546945,43.93151235491037,Ленинский район,Nizhny Novgorod Oblast,Nizhny Novgorod,улица Адмирала Нахимова,28,2,3,1,29.2,18.8,3.4,3.0,3,1929,1,1,,,,,4,,10,11
https://nn.cian.ru/sale/flat/299692789/,2024-03-17 17:01:00,3600000,1,"Нижегородская область, Нижний Новгород, р-н Московский, мкр. Красные зори, Лубянская ул., 1",56.32298675,43.8699276,Московский район,Nizhny Novgorod Oblast,Nizhny Novgorod,Лубянская улица,1,1,5,1,32.7,17.3,6.0,,,1971,4,,1,,,,9,4,13,12
https://nn.cian.ru/sale/flat/299329801/,2024-03-18 14:25:00,2350000,1,"Нижегородская область, Нижний Новгород, р-н Ленинский, мкр. Ипподромный, ул. Энтузиастов, 10к1",56.2845965,43.92093833271892,Ленинский район,Nizhny Novgorod Oblast,Nizhny Novgorod,улица Энтузиастов,10 к1,2,5,1,18.5,8.5,5.0,,,1969,,,2,,,,11,4,19,14
https://nn.cian.ru/sale/flat/296643354/,2024-02-04 13:42:00,3199000,1,"Нижегородская область, Нижний Новгород, р-н Московский, мкр. Бурнаковский, ул. Куйбышева, 6",56.3262715,43.91528565,Московский район,Nizhny Novgorod Oblast,Nizhny Novgorod,улица Куйбышева,6,4,4,1,26.5,16.6,4.8,2.7,3,1960,1,1,1,,,1,3,1,11,12
https://nn.cian.ru/sale/flat/298573143/,2024-03-19 19:11:00,3550000,1,"Нижегородская область, Нижний Новгород, р-н Ленинский, мкр. Двигатель Революции, ул. Героя Чугунова, 5",56.2783047,43.9303674,Ленинский район,Nizhny Novgorod Oblast,Nizhny Novgorod,улица Героя Чугунова,5,3,3,1,26.0,12.0,7.0,3.0,2,1954,1,1,1,1,,,12,2,23,22
https://nn.cian.ru/sale/flat/299230876/,2024-03-18 14:02:00,3250000,1,"Нижегородская область, Нижний Новгород, р-н Автозаводский, мкр. Мостоотряд, 9",56.3351357,43.8810655,Московский район,Nizhny Novgorod Oblast,Nizhny Novgorod,улица Страж Революции,9,5,5,1,33.9,18.8,7.8,2.55,3,1989,1,1,1,,,1,9,4,13,11
https://nn.cian.ru/sale/flat/298170680/,2024-03-12 12:59:00,3849000,1,"Нижегородская область, Нижний Новгород, р-н Автозаводский, мкр. Автозавод, ул. Лескова, 20",56.23611095,43.861879,Автозаводский район,Nizhny Novgorod Oblast,Nizhny Novgorod,улица Лескова,20,3,5,1,31.0,18.0,,,3,1961,4,,1,,,1,12,4,26,19
https://nn.cian.ru/sale/flat/285865942/,2024-03-19 20:25:00,3800000,1,"Нижегородская область, Нижний Новгород, р-н Автозаводский, мкр. Соцгород, ул. Ватутина, 1А",56.2445677,43.8450907757784,Автозаводский район,Nizhny Novgorod Oblast,Nizhny Novgorod,улица Ватутина,1А,1,5,1,30.8,18.0,6.0,,3,1964,1,,1,,,,10,5,15,16
https://nn.cian.ru/sale/flat/295175267/,2024-03-18 11:10:00,3350000,1,"Нижегородская область, Нижний Новгород, р-н Канавинский, мкр. 15-й квартал, Московское ш., 126",56.313958299999996,43.8893230330544,Канавинский район,Nizhny Novgorod Oblast,Nizhny Novgorod,Московское шоссе,126,1,5,1,29.5,17.1,5.5,,3,1961,1,1,1,,,,8,1,10,10
https://nn.cian.ru/sale/flat/299247736/,2024-03-18 11:36:00,3600000,1,"Нижегородская область, Нижний Новгород, р-н Московский, мкр. Авиационный, ул. Чаадаева, 12А",56.3280407,43.848615674093125,Московский район,Nizhny Novgorod Oblast,Nizhny Novgorod,улица Чаадаева,12А,5,9,1,28.0,14.0,8.5,,3,1991,1,,,,1,1,3,3,12,14
https://nn.cian.ru/sale/flat/294512321/,2024-03-18 13:55:00,2850000,1,"Нижегородская область, Нижний Новгород, р-н Советский, мкр. Высоково, Полтавский пер., 20",56.31456255,44.02769591019389,Советский район,Nizhny Novgorod Oblast,Nizhny Novgorod,Полтавский переулок,20,1,1,1,29.0,19.0,5.0,,,,1,,,,,,10,7,19,15
https://nn.cian.ru/sale/flat/291302338/,2024-03-18 13:35:00,3800000,1,"Нижегородская область, Нижний Новгород, р-н Советский, мкр. Тобольские казармы, ул. Нартова, 29",56.2826188,43.992537014333365,Советский район,Nizhny Novgorod Oblast,Nizhny Novgorod,ul. Nartova,29,1,5,1,30.2,17.0,6.0,,,1972,1,,1,,,,6,1,11,7
https://nn.cian.ru/sale/flat/298568786/,2024-03-19 17:56:00,4000000,1,"Нижегородская область, Нижний Новгород, р-н Автозаводский, мкр. Соцгород, ул. Ватутина, 5",56.247702399999994,43.84679977165047,Автозаводский район,Nizhny Novgorod Oblast,Nizhny Novgorod,улица Ватутина,5,3,5,1,30.2,16.6,6.0,,3,1966,1,,1,,,1,11,6,20,18
https://nn.cian.ru/sale/flat/298349053/,2024-03-18 10:17:00,3200000,1,"Нижегородская область, Нижний Новгород, р-н Сормовский, мкр. 5-6-7 Сормова, Машинная ул., 4",56.3668014,43.81443025905995,Сормовский район,Nizhny Novgorod Oblast,Nizhny Novgorod,Машинная улица,4,1,2,1,37.0,19.0,7.5,2.7,,,,,1,1,,,10,,17,16
https://nn.cian.ru/sale/flat/292849974/,2024-03-18 15:00:00,2990000,1,"Нижегородская область, Нижний Новгород, р-н Приокский, мкр. Дубенки, ул. Энергетиков, 6/12",56.261742,43.9823334,Приокский район,Nizhny Novgorod Oblast,Nizhny Novgorod,улица Энергетиков,,2,2,1,30.7,20.6,4.4,,,1958,1,,1,,1,,6,2,6,12
https://nn.cian.ru/sale/flat/299292405/,2024-03-19 17:34:00,3950000,1,"Нижегородская область, Нижний Новгород, р-н Автозаводский, мкр. Автозавод, ул. Героя Советского Союза Прыгунова, 13",56.2325441,43.86185731498246,Автозаводский район,Nizhny Novgorod Oblast,Nizhny Novgorod,улица Героя Советского Союза Прыгунова,13,3,5,1,30.7,16.5,6.0,,3,1963,1,,1,,,1,11,1,23,19
https://nn.cian.ru/sale/flat/298779673/,2024-03-19 15:40:00,3850000,1,"Нижегородская область, Нижний Новгород, Щербинки жилой район, Щербинки-1 микрорайон, 1",,,,,,,,3,5,1,29.9,17.5,5.5,2.5,,1965,1,,1,,,,,,,
https://nn.cian.ru/sale/flat/298563318/,2024-03-18 11:55:00,3700000,1,"Нижегородская область, Нижний Новгород, р-н Автозаводский, мкр. Соцгород, Соцгород-1 микрорайон, просп. Кирова, 16",,,,,,,,4,5,1,30.0,17.0,6.0,,3,1965,1,,1,,,1,,,,
https://nn.cian.ru/sale/flat/292685552/,2024-03-20 01:40:00,3700000,1,"Нижегородская область, Нижний Новгород, р-н Нижегородский, мкр. Усиловский, Яблоневая ул., 13А",56.3096842,44.050664267749795,Нижегородский район,Nizhny Novgorod Oblast,Nizhny Novgorod,Yablonevaya ul.,13А,3,5,1,29.5,17.0,6.0,,3,1965,1,,1,,,1,2,1,8,6
https://nn.cian.ru/sale/flat/295150987/,2024-03-19 18:10:00,3670000,1,"Нижегородская область, Нижний Новгород, р-н Автозаводский, мкр. Мостоотряд, 34",56.3269958,44.0051341,Нижегородский район,Nizhny Novgorod Oblast,Nizhny Novgorod,площадь Минина и Пожарского,,3,5,1,36.3,17.7,10.2,,3,1993,1,,1,,,1,14,6,13,9
https://nn.cian.ru/sale/flat/298329942/,2024-03-19 15:10:00,3150000,1,"Нижегородская область, Нижний Новгород, р-н Приокский, мкр. Щербинки, ул. Кащенко, 21",56.2396255,43.9793273,Приокский район,Nizhny Novgorod Oblast,Nizhny Novgorod,улица Кащенко,21,1,5,1,30.0,16.5,6.4,2.5,,1975,1,2,1,,,,1,1,7,4
https://nn.cian.ru/sale/flat/293732552/,2024-02-23 10:29:00,3600000,1,"Нижегородская область, Нижний Новгород, р-н Сормовский, мкр. 5-6-7 Сормова, ул. Героев космоса, 44",56.3611218,43.817304199999995,Сормовский район,Nizhny Novgorod Oblast,Nizhny Novgorod,улица Героев Космоса,44,7,9,1,35.0,17.0,6.0,2.5,3,1974,4,1,1,,1,1,11,1,18,18
https://nn.cian.ru/sale/flat/294561852/,2024-03-19 03:25:00,3700000,1,"Нижегородская область, Нижний Новгород, р-н Автозаводский, мкр. Соцгород, просп. Ильича, 32А",56.2469167,43.85238665,Автозаводский район,Nizhny Novgorod Oblast,Nizhny Novgorod,проспект Ильича,32А,2,5,1,33.1,18.2,5.5,2.65,,1959,4,2,1,1,,,11,6,28,16
https://nn.cian.ru/sale/flat/298206669/,2024-03-18 14:10:00,3750000,1,"Нижегородская область, Нижний Новгород, р-н Автозаводский, мкр. Соцгород, ул. Героя Советского Союза Поющева, 25",56.25366155,43.870031749999995,Автозаводский район,Nizhny Novgorod Oblast,Nizhny Novgorod,улица Героя Советского Союза Поющева,25,1,5,1,30.0,16.0,5.5,,3,1959,1,,1,,,,11,3,17,18
https://nn.cian.ru/sale/flat/298551331/,2024-03-14 12:28:00,3600000,1,"Нижегородская область, Нижний Новгород, р-н Ленинский, мкр. Карповка, ул. Героя Попова, 3А",56.2559686,43.91956389287699,Ленинский район,Nizhny Novgorod Oblast,Nizhny Novgorod,улица Героя Попова,3А,2,3,1,32.8,18.7,7.0,2.8,3,1989,,,1,,,,,,4,3
https://nn.cian.ru/sale/flat/298141133/,2024-03-19 18:55:00,3850000,1,"Нижегородская область, Нижний Новгород, р-н Автозаводский, мкр. Соцгород, просп. Ильича, 43",56.246616700000004,43.8424801,Автозаводский район,Nizhny Novgorod Oblast,Nizhny Novgorod,проспект Ильича,43,5,5,1,32.4,18.0,6.0,,,1961,1,1,1,,,1,9,4,15,15
https://nn.cian.ru/sale/flat/298976384/,2024-03-18 15:10:00,4000000,1,"Нижегородская область, Нижний Новгород, р-н Московский, мкр. Орджоникидзе, ул. Евгения Мирошникова, 3А",,,,,,,,6,9,1,30.0,12.8,6.4,,3,1917,1,,1,,1,1,,,,
https://nn.cian.ru/sale/flat/299260757/,2024-03-19 12:10:00,3398000,1,"Нижегородская область, Нижний Новгород, р-н Канавинский, мкр. Сортировочный, Камчатский пер., 9",56.3044603,43.84638234473603,Канавинский район,Nizhny Novgorod Oblast,Nizhny Novgorod,Камчатский переулок,9,4,5,1,30.2,16.6,6.8,,,1977,1,,1,,,1,1,,3,2
https://nn.cian.ru/sale/flat/298129463/,2024-03-18 12:25:00,3700000,1,"Нижегородская область, Нижний Новгород, р-н Сормовский, мкр. Дарьино, ул. Энгельса, 14",56.34287975,43.87054576194072,Сормовский район,Nizhny Novgorod Oblast,Nizhny Novgorod,улица Энгельса,14,5,5,1,32.5,18.5,5.5,,,1963,4,,1,,,1,12,2,15,10
https://nn.cian.ru/sale/flat/299003170/,2024-03-18 10:18:00,3500000,1,"Нижегородская область, Нижний Новгород, р-н Московский, мкр. Московский проспект, Бурнаковский проезд, 11",56.31679445,43.90228274599551,Московский район,Nizhny Novgorod Oblast,Nizhny Novgorod,Бурнаковский проезд,11,1,3,1,36.0,16.0,14.0,3.2,3,1956,1,2,1,1,,,5,,7,4
https://nn.cian.ru/sale/flat/298449747/,2024-03-19 14:48:00,3650000,1,"Нижегородская область, Нижний Новгород, р-н Автозаводский, мкр. Мончегорский, ул. Сазанова, 8А",56.238606250000004,43.833563982699495,Автозаводский район,Nizhny Novgorod Oblast,Nizhny Novgorod,улица Сазанова,8А,4,5,1,31.1,18.2,6.0,2.5,3,1962,1,1,1,1,,,6,2,17,15
https://nn.cian.ru/sale/flat/299104806/,2024-03-19 15:25:00,3950000,1,"Нижегородская область, Нижний Новгород, р-н Автозаводский, мкр. Автозавод, ул. Лескова, 23",56.23233025,43.85666545822703,Автозаводский район,Nizhny Novgorod Oblast,Nizhny Novgorod,улица Лескова,23,3,5,1,31.1,19.5,5.6,,,1962,4,,1,,,1,10,1,17,17
https://nn.cian.ru/sale/flat/298468621/,2024-03-19 15:40:00,2850000,1,"Нижегородская область, Нижний Новгород, р-н Московский, мкр. Орджоникидзе, ул. Мечникова, 79",56.337424999999996,43.8331243793479,Московский район,Nizhny Novgorod Oblast,Nizhny Novgorod,улица Мечникова,79,8,9,1,20.5,10.0,5.5,,,1981,1,,,,1,,4,1,12,17
https://nn.cian.ru/sale/flat/295770884/,2024-02-27 16:49:00,3250000,1,"Нижегородская область, Нижний Новгород, р-н Сормовский, мкр. поселок Новый, ул. Федосеенко, 92",56.3437742,43.8040641,Сормовский район,Nizhny Novgorod Oblast,Nizhny Novgorod,улица Федосеенко,92,3,3,1,33.4,19.0,6.4,,2,1959,1,,1,1,,1,,,1,
https://nn.cian.ru/sale/flat/298255810/,2024-03-19 13:40:00,4000000,1,"Нижегородская область, Нижний Новгород, р-н Канавинский, мкр. Канавино, Витебская ул., 58",56.3089469,43.939544901931,Канавинский район,Nizhny Novgorod Oblast,Nizhny Novgorod,Витебская улица,58,2,4,1,32.7,18.5,6.1,2.52,,1961,1,1,1,,,1,6,8,15,10
https://nn.cian.ru/sale/flat/296350947/,2024-03-19 15:40:00,2600000,1,"Нижегородская область, Нижний Новгород, р-н Канавинский, мкр. Канавино, Революционная ул., 3",56.3200547,43.954711,Канавинский район,Nizhny Novgorod Oblast,Nizhny Novgorod,Революционная улица,3,1,2,1,26.7,15.7,6.0,3.0,,1916,,2,1,1,,,5,2,11,5
https://nn.cian.ru/sale/flat/299539136/,2024-03-19 15:40:00,3600000,1,"Нижегородская область, Нижний Новгород, р-н Автозаводский, мкр. Северный, ул. Дружаева, 13А",56.26421485,43.875809888368245,Автозаводский район,Nizhny Novgorod Oblast,Nizhny Novgorod,улица Дружаева,13А,9,9,1,33.0,20.0,6.0,,3,1988,1,,,,1,,9,5,17,17
https://nn.cian.ru/sale/flat/299524430/,2024-03-12 19:47:00,3150000,1,"Нижегородская область, Нижний Новгород, р-н Сормовский, мкр. Вождей Революции, ул. Никиты Рыбакова, 5",56.346589699999996,43.84681233323783,Сормовский район,Nizhny Novgorod Oblast,Nizhny Novgorod,улица Никиты Рыбакова,5,1,2,1,32.2,20.8,5.0,2.6,,1958,1,,1,1,,,6,4,15,17
https://nn.cian.ru/sale/flat/297293687/,2024-03-18 21:25:00,2750000,1,"Нижегородская область, Нижний Новгород, р-н Канавинский, мкр. Березовский, Знаменская ул., 27",56.3016563,43.88364177022554,Канавинский район,Nizhny Novgorod Oblast,Nizhny Novgorod,Знаменская улица,27,3,3,1,33.9,20.9,8.0,,3,1959,1,1,1,,,,1,,1,3
https://nn.cian.ru/sale/flat/299799825/,2024-03-20 01:19:00,3750000,1,"Нижегородская область, Нижний Новгород, р-н Московский, мкр. Красные зори, ул. Героя Рябцева, 12",56.31698515,43.868601962057284,Московский район,Nizhny Novgorod Oblast,Nizhny Novgorod,улица Героя Рябцева,12,1,9,1,30.0,17.5,7.0,,,1973,1,,1,,,1,6,1,10,12
https://nn.cian.ru/sale/flat/298883565/,2024-03-19 21:40:00,3150000,1,"Нижегородская область, Нижний Новгород, р-н Автозаводский, мкр. Мостоотряд, 33",56.328511,43.9853442,Нижегородский район,Nizhny Novgorod Oblast,Nizhny Novgorod,Нижне-Волжская набережная,,1,5,1,28.5,,7.0,,,1985,1,1,1,,,1,6,4,6,5
https://nn.cian.ru/sale/flat/297192046/,2024-03-18 13:37:00,4000000,1,"Нижегородская область, Нижний Новгород, р-н Ленинский, мкр. Ипподромный, просп. Ленина, 59к7",56.2420394,43.8639371,Автозаводский район,Nizhny Novgorod Oblast,Nizhny Novgorod,проспект Ленина,,1,5,1,30.2,19.0,5.5,,3,1966,,,1,,,,12,3,24,13
https://nn.cian.ru/sale/flat/299203189/,2024-03-03 12:04:00,3850000,1,"Нижегородская область, Нижний Новгород, р-н Канавинский, мкр. Сортировочный, Архангельская ул., 5",56.2859929,43.84777776650944,Канавинский район,Nizhny Novgorod Oblast,Nizhny Novgorod,Архангельская улица,5,1,5,1,30.2,,6.0,,3,1970,1,,,,,,5,1,9,4
https://nn.cian.ru/sale/flat/298191625/,2024-03-19 09:55:00,3550000,1,"Нижегородская область, Нижний Новгород, р-н Канавинский, мкр. Сортировочный, Запрудная ул., 2",56.2917591,43.841386564727216,Канавинский район,Nizhny Novgorod Oblast,Nizhny Novgorod,Запрудная улица,2,8,9,1,21.0,11.0,5.0,,3,1979,1,,,,1,1,4,1,7,3
https://nn.cian.ru/sale/flat/268751069/,2024-03-18 14:08:00,3800000,1,"Нижегородская область, Нижний Новгород, р-н Автозаводский, мкр. Соцгород, ул. Раевского, 11",56.25975325,43.8644781,Автозаводский район,Nizhny Novgorod Oblast,Nizhny Novgorod,улица Раевского,11,3,5,1,41.0,28.0,6.0,2.5,3,1969,1,,1,,,,11,1,23,23
https://nn.cian.ru/sale/flat/299519850/,2024-03-19 18:26:00,3600000,1,"Нижегородская область, Нижний Новгород, р-н Канавинский, мкр. Сортировочный, Московское ш., 282",56.31265655,43.855853445641976,Канавинский район,Nizhny Novgorod Oblast,Nizhny Novgorod,Московское шоссе,282,2,5,1,32.5,21.7,5.8,,3,1961,1,1,1,,,1,2,,6,5
https://nn.cian.ru/sale/flat/299483547/,2024-03-18 15:10:00,3700000,1,"Нижегородская область, Нижний Новгород, р-н Московский, мкр. Орджоникидзе, ул. Черняховского, 12",56.3363324,43.84686968412718,Московский район,Nizhny Novgorod Oblast,Nizhny Novgorod,улица Черняховского,12,2,5,1,32.3,,5.3,,3,1962,4,,1,,,1,5,3,16,19
https://nn.cian.ru/sale/flat/278332752/,2024-03-19 21:10:00,3300000,1,"Нижегородская область, Нижний Новгород, р-н Приокский, Черепичный поселок, 9",56.2450221,44.0080038,Приокский район,Nizhny Novgorod Oblast,Nizhny Novgorod,,9,5,5,1,32.2,17.0,5.5,2.5,3,1977,1,,1,,,,1,,1,1
https://nn.cian.ru/sale/flat/298435937/,2024-03-18 11:21:00,3499000,1,"Нижегородская область, Нижний Новгород, р-н Автозаводский, мкр. Северный, ул. Пермякова, 30",56.270647,43.87724098255995,Автозаводский район,Nizhny Novgorod Oblast,Nizhny Novgorod,улица Пермякова,30,8,9,1,27.7,13.0,7.0,2.5,3,1985,1,1,,,1,,7,5,15,12
https://nn.cian.ru/sale/flat/298861730/,2024-02-22 09:16:00,3250000,1,"Нижегородская область, Нижний Новгород, р-н Московский, мкр. Орджоникидзе, ул. Чаадаева, 37",56.3317008,43.83754025,Московский район,Nizhny Novgorod Oblast,Nizhny Novgorod,улица Чаадаева,37,1,2,1,31.5,20.5,6.0,3.0,3,1958,5,1,1,1,,,5,2,11,16
https://nn.cian.ru/sale/flat/295671886/,2024-03-19 13:26:00,3550000,1,"Нижегородская область, Нижний Новгород, р-н Автозаводский, мкр. Мостоотряд, Праздничная ул., 6",56.207531200000005,43.81745495,Автозаводский район,Nizhny Novgorod Oblast,Nizhny Novgorod,Праздничная улица,6,1,3,1,34.1,19.9,7.3,2.6,3,2013,,1,1,,,1,,,5,1
https://nn.cian.ru/sale/flat/299675793/,2024-03-18 16:16:00,2850000,1,"Нижегородская область, Нижний Новгород, р-н Автозаводский, мкр. Северный, ул. Пермякова, 12",56.26871265,43.868770307310655,Автозаводский район,Nizhny Novgorod Oblast,Nizhny Novgorod,улица Пермякова,12,3,9,1,21.6,12.0,5.4,2.5,3,1983,1,2,1,,1,1,7,2,14,12
https://nn.cian.ru/sale/flat/292808340/,2024-03-19 16:51:00,3700000,1,"Нижегородская область, Нижний Новгород, р-н Автозаводский, мкр. Мончегорский, ул. Мончегорская, 15Ак1",56.2347996,43.8291743,Автозаводский район,Nizhny Novgorod Oblast,Nizhny Novgorod,Мончегорская улица,,3,9,1,28.4,17.4,5.2,,3,1976,1,,1,,1,,5,1,15,15
https://nn.cian.ru/sale/flat/298611371/,2024-03-18 16:10:00,3900000,1,"Нижегородская область, Нижний Новгород, р-н Советский, мкр. улица Бекетова, Чукотская ул., 3",56.291888,44.01617390076598,Советский район,Nizhny Novgorod Oblast,Nizhny Novgorod,Chukotskaya street,3,3,10,1,22.0,12.0,4.6,,3,1976,1,,1,,,,5,5,6,12
https://nn.cian.ru/sale/flat/298367397/,2024-03-18 17:25:00,3800000,1,"Нижегородская область, Нижний Новгород, р-н Автозаводский, мкр. Автозавод, ул. Героя Юрия Смирнова, 27",56.2374143,43.86273427186337,Автозаводский район,Nizhny Novgorod Oblast,Nizhny Novgorod,улица Героя Юрия Смирнова,27,5,5,1,30.3,19.0,5.5,,,1961,3,,1,,,1,11,3,26,16
https://nn.cian.ru/sale/flat/298206490/,2024-03-19 14:25:00,2750000,1,"Нижегородская область, Нижний Новгород, р-н Ленинский, мкр. Ипподромный, ул. Энтузиастов, 10к1",56.2845965,43.92093833271892,Ленинский район,Nizhny Novgorod Oblast,Nizhny Novgorod,улица Энтузиастов,10 к1,4,5,1,18.6,9.6,4.0,,,1969,,1,1,,,,11,4,19,14
https://nn.cian.ru/sale/flat/299142607/,2024-03-19 17:41:00,4000000,1,"Нижегородская область, Нижний Новгород, р-н Приокский, мкр. Щербинки, ул. Маршала Голованова, 13",56.2372672,43.9678421,Приокский район,Nizhny Novgorod Oblast,Nizhny Novgorod,улица Маршала Голованова,13,5,5,1,30.0,17.0,6.7,2.55,3,1973,1,1,1,,,1,3,3,14,10
https://nn.cian.ru/sale/flat/299560045/,2024-03-13 15:52:00,2900000,1,"Нижегородская область, Нижний Новгород, р-н Автозаводский, мкр. Северный, ул. Пермякова, 14",56.269159,43.8698966400961,Автозаводский район,Nizhny Novgorod Oblast,Nizhny Novgorod,улица Пермякова,14,3,9,1,21.0,11.4,5.0,2.5,3,1982,1,1,1,1,1,1,7,3,15,14
https://nn.cian.ru/sale/flat/297041310/,2024-03-19 16:55:00,3390000,1,"Нижегородская область, Нижний Новгород, р-н Канавинский, мкр. 15-й квартал, Московское ш., 84",56.3145103,43.9014116,Канавинский район,Nizhny Novgorod Oblast,Nizhny Novgorod,Московское шоссе,84,4,5,1,30.8,18.0,6.1,,3,1964,1,,1,,,1,5,,6,4
https://nn.cian.ru/sale/flat/299321239/,2024-03-18 20:25:00,3900000,1,"Нижегородская область, Нижний Новгород, ул. Героя Юрия Смирнова, 35",56.23692245,43.85881156652499,Автозаводский район,Nizhny Novgorod Oblast,Nizhny Novgorod,улица Героя Юрия Смирнова,35,1,5,1,31.7,17.0,5.9,2.5,3,1961,1,2,1,,,,12,4,25,18
https://nn.cian.ru/sale/flat/298426474/,2024-03-13 11:26:00,3600000,1,"Нижегородская область, Нижний Новгород, р-н Московский, мкр. Спортивный, ул. Глинки, 40",56.3367273,43.87491838513526,Московский район,Nizhny Novgorod Oblast,Nizhny Novgorod,улица Глинки,40,4,10,1,29.5,17.6,5.4,2.5,3,1971,1,1,1,1,1,,10,6,12,10
https://nn.cian.ru/sale/flat/298136671/,2024-03-19 14:10:00,3700000,1,"Нижегородская область, Нижний Новгород, р-н Автозаводский, мкр. Северный, ул. Дружаева, 3",56.25814,43.88357897515478,Автозаводский район,Nizhny Novgorod Oblast,Nizhny Novgorod,улица Дружаева,3,1,9,1,33.9,17.2,10.0,,3,1973,4,1,1,,1,,7,3,12,14
https://nn.cian.ru/sale/flat/280828309/,2024-03-19 15:40:00,3350000,1,"Нижегородская область, Нижний Новгород, р-н Автозаводский, мкр. Мончегорский, ул. Мончегорская, 7А",56.2333541,43.8340672,Автозаводский район,Nizhny Novgorod Oblast,Nizhny Novgorod,Мончегорская улица,7А,4,5,1,30.7,16.4,6.4,,,1970,1,,1,,,1,6,1,16,13
https://nn.cian.ru/sale/flat/254637131/,2024-03-19 12:37:00,3900000,1,"Нижегородская область, Нижний Новгород, р-н Советский, мкр. улица Бекетова, Светлогорский пер., 13",56.2917875,43.9883727,Советский район,Nizhny Novgorod Oblast,Nizhny Novgorod,Светлогорский переулок,13,1,5,1,21.6,11.9,5.3,,3,1980,1,1,1,,,,3,4,11,5
https://nn.cian.ru/sale/flat/299637798/,2024-03-19 13:55:00,3300000,1,"Нижегородская область, Нижний Новгород, р-н Сормовский, мкр. 5-6-7 Сормова, ул. Зайцева, 1",56.3681932,43.803223417407864,Сормовский район,Nizhny Novgorod Oblast,Nizhny Novgorod,улица Зайцева,1,1,9,1,36.5,18.1,8.9,,,1985,1,,,,1,,8,,11,9
https://nn.cian.ru/sale/flat/299720927/,2024-03-19 13:31:00,3600000,1,"Нижегородская область, Нижний Новгород, р-н Автозаводский, мкр. Северный, ул. Дружаева, 13",56.26466205,43.876711500796894,Автозаводский район,Nizhny Novgorod Oblast,Nizhny Novgorod,улица Дружаева,13,6,9,1,29.5,18.0,5.0,,3,1973,1,,1,,1,1,9,6,17,18
https://nn.cian.ru/sale/flat/299320839/,2024-03-06 11:57:00,2900000,1,"Нижегородская область, Нижний Новгород, р-н Канавинский, мкр. Березовский, Ракетная ул., 5",56.3042882,43.8850556,Канавинский район,Nizhny Novgorod Oblast,Nizhny Novgorod,Ракетная улица,5,1,2,1,32.3,21.9,4.5,2.85,3,1957,4,1,1,1,,,4,1,2,3
https://nn.cian.ru/sale/flat/298139661/,2024-03-19 17:56:00,3700000,1,"Нижегородская область, Нижний Новгород, р-н Ленинский, мкр. Двигатель Революции, Композиторская ул., 5",56.27026175,43.933865652636634,Ленинский район,Nizhny Novgorod Oblast,Nizhny Novgorod,Композиторская улица,5,2,3,1,30.0,17.0,5.5,2.8,3,1960,1,2,1,,,1,6,2,14,15
https://nn.cian.ru/sale/flat/298969323/,2024-03-19 15:25:00,3800000,1,"Нижегородская область, Нижний Новгород, р-н Советский, мкр. улица Бекетова, Юбилейная ул., 36",56.29289125,44.02408834810558,Советский район,Nizhny Novgorod Oblast,Nizhny Novgorod,Ubileinaya street,36,1,5,1,22.0,11.8,5.2,,,1975,1,1,1,,,,5,4,10,10
https://nn.cian.ru/sale/flat/299260753/,2024-03-19 12:10:00,3900000,1,"Нижегородская область, Нижний Новгород, р-н Автозаводский, мкр. Северный, просп. Бусыгина, 60",56.274472200000005,43.885424714806064,Автозаводский район,Nizhny Novgorod Oblast,Nizhny Novgorod,проспект Бусыгина,60,7,9,1,36.3,18.2,9.0,,3,1992,1,,1,,1,1,5,5,12,9
https://nn.cian.ru/sale/flat/299025309/,2024-03-18 13:55:00,3900000,1,"Нижегородская область, Нижний Новгород, р-н Канавинский, мкр. Канавино, Вольская ул., 7А",56.311955999999995,43.94202388610398,Канавинский район,Nizhny Novgorod Oblast,Nizhny Novgorod,Вольская улица,7А,2,4,1,30.6,18.1,6.0,,,1964,1,,,,,1,6,7,13,8
https://nn.cian.ru/sale/flat/297393369/,2024-03-19 07:45:00,2850000,1,"Нижегородская область, Нижний Новгород, р-н Автозаводский, мкр. Мончегорский, ул. Обнорского, 5А",56.24172635,43.83460615657414,Автозаводский район,Nizhny Novgorod Oblast,Nizhny Novgorod,улица Обнорского,5А,1,3,1,25.5,15.9,4.6,,3,1961,,1,1,,,,7,4,19,14
https://nn.cian.ru/sale/flat/298132026/,2024-02-13 20:33:00,3500000,1,"Нижегородская область, Нижний Новгород, р-н Канавинский, мкр. 15-й квартал, Авангардная ул., 20",56.309304749999995,43.88770706646285,Канавинский район,Nizhny Novgorod Oblast,Nizhny Novgorod,Авангардная улица,20,1,9,1,30.0,14.0,8.0,2.7,,1989,4,1,1,1,1,1,7,1,10,7
https://nn.cian.ru/sale/flat/299294309/,2024-03-18 11:10:00,3500000,1,"Нижегородская область, Нижний Новгород, р-н Московский, мкр. Красные зори, ул. Героя Рябцева, 33",56.32241635,43.86522191421239,Московский район,Nizhny Novgorod Oblast,Nizhny Novgorod,улица Героя Рябцева,33,2,4,1,32.9,19.2,5.6,,,1961,1,,1,,,,8,6,13,10
https://nn.cian.ru/sale/flat/298643550/,2024-03-19 13:10:00,3950000,1,"Нижегородская область, Нижний Новгород, р-н Автозаводский, мкр. Северный, ул. Львовская, 21",56.2704841,43.88115960562166,Автозаводский район,Nizhny Novgorod Oblast,Nizhny Novgorod,Львовская улица,21,3,9,1,35.2,17.2,8.8,,3,1988,1,,1,,1,1,7,6,15,14
https://nn.cian.ru/sale/flat/299260739/,2024-03-20 01:20:00,3950000,1,"Нижегородская область, Нижний Новгород, р-н Автозаводский, мкр. Мончегорский, ул. Мончегорская, 11А/1",56.2341478,43.827027,Автозаводский район,Nizhny Novgorod Oblast,Nizhny Novgorod,Мончегорская улица,,1,5,1,35.0,15.7,13.5,,2,,,,1,,,,5,1,15,13
https://nn.cian.ru/sale/flat/298141134/,2024-03-19 15:25:00,3570000,1,"Нижегородская область, Нижний Новгород, р-н Московский, мкр. Московский проспект, просп. Героев, 44",56.31929715,43.88780846873232,Московский район,Nizhny Novgorod Oblast,Nizhny Novgorod,проспект Героев,44,2,4,1,32.4,19.0,5.6,,3,1961,,,1,,,,10,4,13,11
https://nn.cian.ru/sale/flat/290760779/,2024-03-18 13:35:00,2200000,1,"Нижегородская область, Нижний Новгород, р-н Канавинский, мкр. Сортировочный, ул. Металлистов, 2",56.3120198,43.85968,Канавинский район,Nizhny Novgorod Oblast,Nizhny Novgorod,улица Металлистов,2,1,2,1,28.6,12.1,7.7,,,1942,1,,1,,,,2,1,7,8
https://nn.cian.ru/sale/flat/298701004/,2024-03-18 12:22:00,4000000,1,"Нижегородская область, Нижний Новгород, Подворная ул., 3",56.289584000000005,43.84706209999999,Канавинский район,Nizhny Novgorod Oblast,Nizhny Novgorod,Подворная улица,3,7,9,1,34.4,17.0,7.9,,3,1993,4,1,1,,1,1,5,1,9,4
https://nn.cian.ru/sale/flat/299637315/,2024-03-15 13:23:00,3400000,1,"Нижегородская область, Нижний Новгород, р-н Сормовский, мкр. 5-6-7 Сормова, ул. Зайцева, 1",56.3681932,43.803223417407864,Сормовский район,Nizhny Novgorod Oblast,Nizhny Novgorod,улица Зайцева,1,2,9,1,34.3,16.9,11.4,,3,1985,1,,,,1,,8,,11,9
https://nn.cian.ru/sale/flat/293384688/,2024-03-20 04:59:00,3900000,1,"Нижегородская область, Нижний Новгород, р-н Автозаводский, мкр. Северный, просп. Бусыгина, 60",56.274472200000005,43.885424714806064,Автозаводский район,Nizhny Novgorod Oblast,Nizhny Novgorod,проспект Бусыгина,60,7,9,1,36.1,18.2,9.6,,3,1992,1,,1,1,1,1,5,5,12,9
https://nn.cian.ru/sale/flat/299543645/,2024-03-13 10:33:00,3950000,1,"Нижегородская область, Нижний Новгород, р-н Ленинский, мкр. Ипподромный, Снежная ул., 31к1",56.2758962,43.91117065,Ленинский район,Nizhny Novgorod Oblast,Nizhny Novgorod,Снежная улица,31 к1,3,5,1,31.1,17.4,5.7,,,1965,,1,1,,,1,8,2,15,8
https://nn.cian.ru/sale/flat/299321107/,2024-03-19 12:26:00,2699000,1,"Нижегородская область, Нижний Новгород, р-н Московский, мкр. Орджоникидзе, ул. Мечникова, 54",56.33297615,43.83723621030303,Московский район,Nizhny Novgorod Oblast,Nizhny Novgorod,улица Мечникова,54,2,2,1,33.8,23.3,4.5,,,1958,,,1,,,,5,2,11,16
https://nn.cian.ru/sale/flat/298141123/,2024-03-18 16:10:00,3690000,1,"Нижегородская область, Нижний Новгород, р-н Московский, мкр. Красные зори, ул. Павла Орлова, 8",56.318447899999995,43.872470449999994,Московский район,Nizhny Novgorod Oblast,Nizhny Novgorod,улица Павла Орлова,8,1,5,1,30.9,18.7,5.5,,2,1969,4,,1,,,,9,2,13,15
https://nn.cian.ru/sale/flat/297727494/,2024-03-13 15:57:00,3700000,1,"Нижегородская область, Нижний Новгород, р-н Канавинский, мкр. Сортировочный, ул. Металлистов, 7",56.31221845,43.86177792098579,Канавинский район,Nizhny Novgorod Oblast,Nizhny Novgorod,улица Металлистов,7,3,3,1,32.0,15.8,8.2,2.5,3,1989,1,1,1,1,,1,2,1,7,8
https://nn.cian.ru/sale/flat/298883763/,2024-03-19 16:41:00,2750000,1,"Нижегородская область, Нижний Новгород, р-н Автозаводский, мкр. Мончегорский, ул. Мончегорская, 16Ак1",56.2341478,43.827027,Автозаводский район,Nizhny Novgorod Oblast,Nizhny Novgorod,Мончегорская улица,,2,9,1,20.9,11.3,4.6,,3,1982,1,2,1,1,1,,5,1,15,13
https://nn.cian.ru/sale/flat/293517130/,2024-03-19 12:55:00,3800000,1,"Нижегородская область, Нижний Новгород, р-н Нижегородский, мкр. Усиловский, Яблоневая ул., 13А",56.3096842,44.050664267749795,Нижегородский район,Nizhny Novgorod Oblast,Nizhny Novgorod,Yablonevaya ul.,13А,3,5,1,29.5,17.2,6.0,,,1965,1,,1,,,1,2,1,8,6
https://nn.cian.ru/sale/flat/299759200/,2024-03-19 11:22:00,2950000,1,"Нижегородская область, Нижний Новгород, р-н Сормовский, мкр. 5-6-7 Сормова, ул. Героев космоса, 32",56.3607328,43.818282269953535,Сормовский район,Nizhny Novgorod Oblast,Nizhny Novgorod,улица Героев Космоса,32,8,9,1,21.0,11.5,4.9,2.5,3,1974,1,1,1,1,1,,9,1,19,17
https://nn.cian.ru/sale/flat/299721611/,2024-03-18 13:24:00,3999000,2,"Нижегородская область, Нижний Новгород, р-н Ленинский, мкр. Ипподромный, просп. Ленина, 59к8",56.2420394,43.8639371,Автозаводский район,Nizhny Novgorod Oblast,Nizhny Novgorod,проспект Ленина,,1,5,1,31.1,20.7,5.4,,2,1968,5,,1,,,,12,3,24,13
https://nn.cian.ru/sale/flat/298974518/,2024-03-18 11:37:00,3980000,1,"Нижегородская область, Нижний Новгород, р-н Канавинский, мкр. Канавино, Канавинская ул., 57",56.317572299999995,43.948921899999995,Канавинский район,Nizhny Novgorod Oblast,Nizhny Novgorod,Канавинская улица,57,1,2,1,34.5,12.0,6.0,,3,1916,1,2,1,,,,7,2,15,7
https://nn.cian.ru/sale/flat/299403111/,2024-03-08 20:11:00,3800000,1,"Нижегородская область, Нижний Новгород, р-н Ленинский, мкр. Красная Этна, ул. Премудрова, 16к1",56.2919632,43.921207100000004,Ленинский район,Nizhny Novgorod Oblast,Nizhny Novgorod,улица Премудрова,16 к1,5,5,1,30.3,19.0,5.4,2.7,3,1917,4,1,1,,,,5,5,12,7
https://nn.cian.ru/sale/flat/299639878/,2024-03-19 14:41:00,3090000,1,"Нижегородская область, Нижний Новгород, р-н Ленинский, мкр. Двигатель Революции, ул. Паскаля, 3",56.26773945,43.930016636081184,Ленинский район,Nizhny Novgorod Oblast,Nizhny Novgorod,улица Паскаля,3,1,3,1,29.9,18.9,6.0,2.8,3,1931,,1,1,,,,6,1,13,19
https://nn.cian.ru/sale/flat/299298887/,2024-03-19 21:10:00,3400000,1,"Нижегородская область, Нижний Новгород, р-н Канавинский, мкр. Сортировочный, Камчатский пер., 9",56.3044603,43.84638234473603,Канавинский район,Nizhny Novgorod Oblast,Nizhny Novgorod,Камчатский переулок,9,4,5,1,30.2,,6.8,,,1977,1,,1,,,1,1,,3,2
https://nn.cian.ru/sale/flat/298696780/,2024-03-18 12:33:00,3350000,1,"Нижегородская область, Нижний Новгород, р-н Автозаводский, мкр. Мончегорский, ул. Мончегорская, 15Ак1",56.2341478,43.827027,Автозаводский район,Nizhny Novgorod Oblast,Nizhny Novgorod,Мончегорская улица,,9,9,1,28.0,18.5,5.5,2.5,3,1976,1,1,1,1,1,,5,1,15,13
https://nn.cian.ru/sale/flat/296343017/,2024-03-19 12:55:00,3700000,1,"Нижегородская область, Нижний Новгород, р-н Автозаводский, мкр. Автозавод, ул. Юлиуса Фучика, 10к1",56.23329955,43.87830321656614,Автозаводский район,Nizhny Novgorod Oblast,Nizhny Novgorod,улица Фучика,10 к1,9,9,1,32.8,17.1,8.1,,,1989,4,1,1,,,1,9,,15,16
https://nn.cian.ru/sale/flat/299065452/,2024-03-19 15:10:00,2500000,1,"Нижегородская область, Нижний Новгород, р-н Автозаводский, мкр. Автозавод, Турнирная ул., 6",56.23048815,43.855425519184024,Автозаводский район,Nizhny Novgorod Oblast,Nizhny Novgorod,Турнирная улица,6,2,2,1,25.8,15.3,5.5,,,1958,,,1,,,,11,1,20,17
https://nn.cian.ru/sale/flat/299294640/,2024-03-05 18:26:00,3300000,1,"Нижегородская область, Нижний Новгород, р-н Ленинский, мкр. Молитовка, ул. Профинтерна, 7А",56.281574250000006,43.93988865,Ленинский район,Nizhny Novgorod Oblast,Nizhny Novgorod,улица Профинтерна,7А,6,6,1,20.3,,5.1,2.54,3,1972,,,,,,,12,2,22,16
https://nn.cian.ru/sale/flat/299070591/,2024-03-19 16:12:00,2590000,1,"Нижегородская область, Нижний Новгород, р-н Автозаводский, мкр. Автозавод, ул. Лескова, 25",56.23250715,43.8557214466,Автозаводский район,Nizhny Novgorod Oblast,Nizhny Novgorod,улица Лескова,25,2,2,1,25.4,14.2,4.5,2.7,,1958,,1,1,1,,,10,1,18,17
https://nn.cian.ru/sale/flat/297167416/,2024-03-19 15:53:00,3790000,1,"Нижегородская область, Нижний Новгород, р-н Автозаводский, мкр. Автозавод, ул. Героя Советского Союза Прыгунова, 14",56.2319551,43.8605861,Автозаводский район,Nizhny Novgorod Oblast,Nizhny Novgorod,улица Героя Советского Союза Прыгунова,14,4,5,1,30.1,18.1,6.0,,3,1963,1,1,1,,,,12,1,21,19
https://nn.cian.ru/sale/flat/297080978/,2024-03-18 12:01:00,3600000,1,"Нижегородская область, Нижний Новгород, р-н Автозаводский, мкр. 6, Южное ш., 24А",56.224630149999996,43.86328387184398,Автозаводский район,Nizhny Novgorod Oblast,Nizhny Novgorod,Южное шоссе,24А,2,5,1,31.0,19.0,6.0,2.5,3,1967,4,,,,,,11,,19,16
https://nn.cian.ru/sale/flat/297592625/,2024-03-18 13:38:00,3990000,1,"Нижегородская область, Нижний Новгород, р-н Автозаводский, мкр. Автозавод, ул. Героя Юрия Смирнова, 39",56.236586700000004,43.85794764112822,Автозаводский район,Nizhny Novgorod Oblast,Nizhny Novgorod,улица Героя Юрия Смирнова,39,2,5,1,30.5,18.1,5.8,,3,1961,1,,,,,,12,4,25,18
https://nn.cian.ru/sale/flat/298961234/,2024-03-18 13:19:00,3870000,1,"Нижегородская область, Нижний Новгород, р-н Автозаводский, мкр. Соцгород, Соцгород-1 микрорайон, просп. Октября, 4",,,,,,,,4,5,1,31.0,17.1,6.0,2.74,,1959,1,1,1,,,1,,,,
https://nn.cian.ru/sale/flat/299260749/,2024-03-19 00:57:00,3950000,1,"Нижегородская область, Нижний Новгород, р-н Московский, мкр. Красные зори, ул. Александра Люкина, 6",56.3172913,43.8771629,Московский район,Nizhny Novgorod Oblast,Nizhny Novgorod,улица Александра Люкина,6,2,9,1,35.9,17.7,7.7,,,1987,1,,1,,2,1,10,1,13,15
https://nn.cian.ru/sale/flat/297409534/,2024-03-18 14:26:00,3600000,1,"Нижегородская область, Нижний Новгород, р-н Ленинский, мкр. Красная Этна, ул. Новикова-Прибоя, 35",56.2777326,43.90279797220224,Ленинский район,Nizhny Novgorod Oblast,Nizhny Novgorod,улица Новикова-Прибоя,35,2,5,1,30.0,17.0,6.0,,3,1968,,,1,,,,7,4,9,5
https://nn.cian.ru/sale/flat/298755520/,2024-03-19 20:10:00,3000000,1,"Нижегородская область, Нижний Новгород, р-н Сормовский, мкр. Володарский, Замкнутая ул., 20",56.3576819,43.84369745,Сормовский район,Nizhny Novgorod Oblast,Nizhny Novgorod,Замкнутая улица,20,2,2,1,36.0,20.5,7.0,,,1946,1,,1,,,1,6,8,15,11
https://nn.cian.ru/sale/flat/299762029/,2024-03-19 16:57:00,2800000,1,"Нижегородская область, Нижний Новгород, р-н Сормовский, мкр. 5-6-7 Сормова, ул. Героев космоса, 50",56.361914049999996,43.81627381183739,Сормовский район,Nizhny Novgorod Oblast,Nizhny Novgorod,улица Героев Космоса,50,1,9,1,21.0,11.3,4.6,2.5,3,1974,1,,1,1,1,,10,1,17,18
https://nn.cian.ru/sale/flat/293353917/,2024-03-19 14:55:00,3300000,1,"Нижегородская область, Нижний Новгород, р-н Московский, мкр. Авиационный, ул. Чаадаева, 6",56.3286894,43.8501362,Московский район,Nizhny Novgorod Oblast,Nizhny Novgorod,улица Чаадаева,6,4,5,1,23.3,12.7,5.6,,3,1970,1,,1,,,,3,3,12,16
https://nn.cian.ru/sale/flat/297711811/,2024-03-18 14:10:00,3600000,1,"Нижегородская область, Нижний Новгород, р-н Приокский, мкр. Щербинки, Щербинки-1 микрорайон, 6",56.24148625,43.97130192203529,Приокский район,Nizhny Novgorod Oblast,Nizhny Novgorod,,6,1,5,1,31.1,18.7,6.0,,,1968,1,,1,,,,2,3,11,7
https://nn.cian.ru/sale/flat/299290626/,2024-03-05 17:08:00,3950000,1,"Нижегородская область, Нижний Новгород, р-н Канавинский, мкр. Ярмарка, Совнаркомовская ул., 30",56.3276387,43.9587451,Канавинский район,Nizhny Novgorod Oblast,Nizhny Novgorod,Совнаркомовская улица,30,1,5,1,30.5,18.0,,,,1967,1,1,1,,,,4,2,11,3
https://nn.cian.ru/sale/flat/296226678/,2024-03-19 10:40:00,3620000,1,"Нижегородская область, Нижний Новгород, р-н Московский, мкр. Московский проспект, просп. Героев, 27",56.3196362,43.890734455633236,Московский район,Nizhny Novgorod Oblast,Nizhny Novgorod,проспект Героев,27,3,5,1,30.0,18.5,5.0,2.5,,1964,,1,1,,,,10,4,11,9
https://nn.cian.ru/sale/flat/299104811/,2024-03-18 17:55:00,3900000,1,"Нижегородская область, Нижний Новгород, р-н Ленинский, мкр. Карповка, ул. Героя Попова, 5",56.2581641,43.921566150000004,Ленинский район,Nizhny Novgorod Oblast,Nizhny Novgorod,улица Героя Попова,5,1,6,1,32.4,18.0,4.7,2.7,3,1973,,1,1,,,,2,,5,6
https://nn.cian.ru/sale/flat/294062603/,2024-03-01 12:53:00,3400000,1,"Нижегородская область, Нижний Новгород, р-н Московский, мкр. Авиационный, ул. Чаадаева, 6",56.3286894,43.8501362,Московский район,Nizhny Novgorod Oblast,Nizhny Novgorod,улица Чаадаева,6,4,5,1,29.0,,7.5,2.5,3,1970,1,,,,,,3,3,12,16
https://nn.cian.ru/sale/flat/299325631/,2024-03-19 17:56:00,3800000,1,"Нижегородская область, Нижний Новгород, р-н Советский, мкр. Кузнечиха, бул. 60-летия Октября, 4",56.28364905,44.050949357671456,Советский район,Nizhny Novgorod Oblast,Nizhny Novgorod,бульвар 60-летия Октября,4,5,5,1,29.1,17.1,5.4,,,1972,1,,1,,,,6,2,11,10
https://nn.cian.ru/sale/flat/299376897/,2024-03-19 18:27:00,3900000,1,"Нижегородская область, Нижний Новгород, р-н Автозаводский, мкр. Северный, ул. Дружаева, 15",56.265126,43.87612512138337,Автозаводский район,Nizhny Novgorod Oblast,Nizhny Novgorod,улица Дружаева,15,3,5,1,29.9,18.4,5.3,,3,1978,1,,1,,,1,9,5,16,17
https://nn.cian.ru/sale/flat/295068075/,2024-03-18 18:10:00,3650000,1,"Нижегородская область, Нижний Новгород, р-н Ленинский, мкр. Молитовка, Перекопская ул., 8",56.275074849999996,43.93964093454402,Ленинский район,Nizhny Novgorod Oblast,Nizhny Novgorod,Перекопская улица,8,2,5,1,22.2,11.2,6.0,,2,1971,,2,1,,,2,8,2,15,16
https://nn.cian.ru/sale/flat/298793908/,2024-03-19 19:26:00,3200000,1,"Нижегородская область, Нижний Новгород, р-н Автозаводский, мкр. Мончегорский, ул. Сазанова, 2",56.2394278,43.8369991,Автозаводский район,Nizhny Novgorod Oblast,Nizhny Novgorod,улица Сазанова,2,2,5,1,31.0,18.6,5.7,2.67,,1962,1,,1,,,,7,4,17,16
https://nn.cian.ru/sale/flat/295216621/,2024-03-19 08:40:00,3800000,1,"Нижегородская область, Нижний Новгород, р-н Приокский, мкр. Дубенки, Эпроновская ул., 10",56.2519023,43.986913035540894,Приокский район,Nizhny Novgorod Oblast,Nizhny Novgorod,Эпроновская улица,10,9,9,1,34.3,17.5,8.0,,,1996,1,,1,,1,1,1,1,2,5
https://nn.cian.ru/sale/flat/298693750/,2024-03-12 20:36:00,3550000,1,"Нижегородская область, Нижний Новгород, Южное ш., 46А",56.228135449999996,43.872959302590246,Автозаводский район,Nizhny Novgorod Oblast,Nizhny Novgorod,Южное шоссе,46А,5,5,1,32.0,19.1,6.0,2.6,,1966,4,1,1,1,,1,11,,19,19
https://nn.cian.ru/sale/flat/298275613/,2024-03-08 19:37:00,3700000,1,"Нижегородская область, Нижний Новгород, р-н Канавинский, мкр. Володарского, Зеленодольская ул., 56",56.31078375,43.9229141,Канавинский район,Nizhny Novgorod Oblast,Nizhny Novgorod,Зеленодольская улица,56,1,5,1,31.4,17.4,6.0,,3,1970,1,2,1,1,,,4,4,6,4
https://nn.cian.ru/sale/flat/298520294/,2024-03-18 15:00:00,3750000,1,"Нижегородская область, Нижний Новгород, р-н Автозаводский, мкр. Мостоотряд, Берестяная ул., 4",56.2060221,43.812535532069646,Автозаводский район,Nizhny Novgorod Oblast,Nizhny Novgorod,Берестяная улица,4,1,3,1,34.7,15.0,8.6,,3,2012,5,1,1,,,1,,,5,1
https://nn.cian.ru/sale/flat/297385726/,2024-03-18 18:20:00,3450000,1,"Нижегородская область, Нижний Новгород, р-н Московский, мкр. Авиационный, Московское ш., 227",56.313476800000004,43.85480514800382,Московский район,Nizhny Novgorod Oblast,Nizhny Novgorod,Московское шоссе,227,5,5,1,32.0,18.0,6.0,,3,1969,,2,1,1,,1,2,,4,4
https://nn.cian.ru/sale/flat/298823946/,2024-03-18 19:55:00,3650000,1,"Нижегородская область, Нижний Новгород, р-н Автозаводский, мкр. Автозавод, ул. Героя Советского Союза Прыгунова, 1",56.236303649999996,43.856969121325434,Автозаводский район,Nizhny Novgorod Oblast,Nizhny Novgorod,улица Героя Советского Союза Прыгунова,1,5,5,1,31.4,17.2,5.7,,,1961,1,1,1,,,,12,4,23,17
https://nn.cian.ru/sale/flat/280828311/,2024-03-19 16:55:00,3550000,1,"Нижегородская область, Нижний Новгород, р-н Автозаводский, мкр. Соцгород, просп. Ильича, 2Б",56.24512115,43.86519174770795,Автозаводский район,Nizhny Novgorod Oblast,Nizhny Novgorod,проспект Ильича,2Б,1,5,1,31.3,17.4,5.4,,,1960,1,,1,,,,11,3,18,11
https://nn.cian.ru/sale/flat/299185797/,2024-03-02 16:49:00,3750000,1,"Нижегородская область, Нижний Новгород, р-н Автозаводский, мкр. Автозавод, ул. Юлиуса Фучика, 27",56.2327148,43.8774154,Автозаводский район,Nizhny Novgorod Oblast,Nizhny Novgorod,улица Фучика,27,5,5,1,29.0,,6.0,,3,1967,4,2,1,,,1,9,,15,16
https://nn.cian.ru/sale/flat/299555988/,2024-03-19 19:55:00,3200000,1,"Нижегородская область, Нижний Новгород, р-н Автозаводский, мкр. Народная стройка, Южное ш., 7",56.22528415,43.85852031077586,Автозаводский район,Nizhny Novgorod Oblast,Nizhny Novgorod,Южное шоссе,7,1,2,1,25.6,14.5,4.6,2.8,2,1958,,2,1,,,,13,1,19,15
https://nn.cian.ru/sale/flat/299370508/,2024-03-19 15:55:00,3700000,1,"Нижегородская область, Нижний Новгород, р-н Приокский, мкр. Щербинки, Щербинки-1 микрорайон, 12",56.239682650000006,43.969402099999996,Приокский район,Nizhny Novgorod Oblast,Nizhny Novgorod,,12,1,5,1,30.2,16.8,6.2,,,1962,1,,1,,,,3,3,13,9
https://nn.cian.ru/sale/flat/294448209/,2024-03-18 11:18:00,3199000,1,"Нижегородская область, Нижний Новгород, р-н Сормовский, мкр. Вождей Революции, ул. Вождей Революции, 16",56.3505919,43.848182168563326,Сормовский район,Nizhny Novgorod Oblast,Nizhny Novgorod,улица Вождей Революции,16,2,2,1,37.0,18.0,8.0,,3,1949,1,1,1,,,,7,8,16,16
https://nn.cian.ru/sale/flat/295985456/,2024-03-18 17:25:00,3600000,1,"Нижегородская область, Нижний Новгород, р-н Московский, мкр. Красные зори, ул. Героя Рябцева, 34",56.3224995,43.8668734,Московский район,Nizhny Novgorod Oblast,Nizhny Novgorod,улица Героя Рябцева,34,5,5,1,31.0,17.0,6.6,,3,1976,1,,1,,,1,8,6,14,10
https://nn.cian.ru/sale/flat/299552992/,2024-03-18 13:19:00,3620000,1,"Нижегородская область, Нижний Новгород, р-н Автозаводский, мкр. Соцгород, ул. Героя Советского Союза Поющева, 27",56.25423495,43.869742403286494,Автозаводский район,Nizhny Novgorod Oblast,Nizhny Novgorod,улица Героя Советского Союза Поющева,27,1,5,1,30.3,17.0,6.0,,,1959,1,,1,,,,12,2,20,17
https://nn.cian.ru/sale/flat/298746568/,2024-03-18 13:06:00,3500000,1,"Нижегородская область, Нижний Новгород, р-н Автозаводский, мкр. Мончегорский, ул. Спутника, 2Б",56.23974535,43.83003455420824,Автозаводский район,Nizhny Novgorod Oblast,Nizhny Novgorod,улица Спутника,2Б,1,5,1,36.0,18.0,11.0,,3,1989,1,,1,,,,5,4,13,15
https://nn.cian.ru/sale/flat/298973148/,2024-03-19 16:55:00,3800000,1,"Нижегородская область, Нижний Новгород, р-н Ленинский, мкр. Ипподромный, просп. Ленина, 51к3",56.2941373,43.9347819,Ленинский район,Nizhny Novgorod Oblast,Nizhny Novgorod,проспект Ленина,,5,5,1,31.6,19.0,5.3,,3,1966,,1,1,,,1,14,5,17,12
https://nn.cian.ru/sale/flat/298789258/,2024-03-18 19:55:00,3650000,1,"Нижегородская область, Нижний Новгород, р-н Автозаводский, мкр. Автозавод, ул. Веденяпина, 16А",56.232192,43.8724783442502,Автозаводский район,Nizhny Novgorod Oblast,Nizhny Novgorod,улица Веденяпина,16А,5,5,1,31.1,19.5,5.6,2.5,,1964,4,2,1,1,,1,10,,19,19
https://nn.cian.ru/sale/flat/298923819/,2024-02-24 17:22:00,3980000,1,"Нижегородская область, Нижний Новгород, р-н Канавинский, мкр. Канавино, Канавинская ул., 57",56.317572299999995,43.948921899999995,Канавинский район,Nizhny Novgorod Oblast,Nizhny Novgorod,Канавинская улица,57,1,2,1,34.5,25.0,,,3,1916,1,1,1,1,,,7,2,15,7
https://nn.cian.ru/sale/flat/295723245/,2024-03-19 21:00:00,3750000,1,"Нижегородская область, Нижний Новгород, р-н Автозаводский, мкр. Мончегорский, ул. Мончегорская, 3к2",56.23536455,43.83224731037317,Автозаводский район,Nizhny Novgorod Oblast,Nizhny Novgorod,Мончегорская улица,3 к2,1,10,1,32.3,16.8,,2.5,,1989,,2,1,,1,2,6,1,17,16
https://nn.cian.ru/sale/flat/299721973/,2024-03-19 14:43:00,3500000,1,"Нижегородская область, Нижний Новгород, р-н Автозаводский, мкр. Северный, ул. Пермякова, 12",56.26871265,43.868770307310655,Автозаводский район,Nizhny Novgorod Oblast,Nizhny Novgorod,улица Пермякова,12,9,9,1,29.6,17.6,5.4,,,1983,1,,1,,,1,7,2,14,12
https://nn.cian.ru/sale/flat/296435285/,2024-03-18 08:10:00,3699999,1,"Нижегородская область, Нижний Новгород, р-н Приокский, мкр. Суриковский, Корейская ул., 4",56.2774534,43.99020444342014,Приокский район,Nizhny Novgorod Oblast,Nizhny Novgorod,Koreyskaya ul.,4,5,5,1,30.0,17.0,6.0,,3,1965,1,,1,,,,4,2,11,7
https://nn.cian.ru/sale/flat/299236846/,2024-03-18 14:55:00,3600000,1,"Нижегородская область, Нижний Новгород, р-н Ленинский, мкр. Красная Этна, ул. Премудрова, 33",56.288627,43.923908654867944,Ленинский район,Nizhny Novgorod Oblast,Nizhny Novgorod,улица Премудрова,33,1,2,1,29.0,16.8,5.8,,3,1938,1,,1,,,,8,3,15,12
https://nn.cian.ru/sale/flat/295985461/,2024-03-18 14:01:00,3800000,1,"Нижегородская область, Нижний Новгород, р-н Автозаводский, мкр. 6, Южное ш., 16",56.2243305,43.8590098,Автозаводский район,Nizhny Novgorod Oblast,Nizhny Novgorod,Южное шоссе,16,5,5,1,32.0,18.8,5.5,2.5,,1968,4,,1,,,1,12,1,14,13
https://nn.cian.ru/sale/flat/298408034/,2024-03-15 11:44:00,3400000,1,"Нижегородская область, Нижний Новгород, р-н Автозаводский, мкр. Автозавод, ул. Лескова, 15А",56.2343848,43.86216577835107,Автозаводский район,Nizhny Novgorod Oblast,Nizhny Novgorod,улица Лескова,15А,5,5,1,30.4,18.0,6.0,2.55,,1965,4,1,1,1,,1,12,2,28,19
https://nn.cian.ru/sale/flat/299329538/,2024-03-18 10:35:00,3400000,1,"Нижегородская область, Нижний Новгород, р-н Ленинский, мкр. Двигатель Революции, ул. Паскаля, 12",56.26846165,43.933329281697695,Ленинский район,Nizhny Novgorod Oblast,Nizhny Novgorod,улица Паскаля,12,1,2,1,35.0,,6.1,,3,1958,,,1,,,,4,1,12,13
https://nn.cian.ru/sale/flat/295982801/,2024-03-19 16:55:00,3300000,1,"Нижегородская область, Нижний Новгород, р-н Советский, мкр. улица Бекетова, Агрономическая ул., 159",56.2963127,44.0151421,Советский район,Nizhny Novgorod Oblast,Nizhny Novgorod,Agronomicheskaya street,159,1,3,1,27.5,18.3,4.2,,,1957,5,,1,,,,5,5,6,12
https://nn.cian.ru/sale/flat/299331391/,2024-03-06 15:25:00,3050000,1,"Нижегородская область, Нижний Новгород, р-н Автозаводский, мкр. Мончегорский, ул. Спутника, 7",56.240002950000004,43.834138550000006,Автозаводский район,Nizhny Novgorod Oblast,Nizhny Novgorod,улица Спутника,7,2,3,1,26.4,16.0,5.0,,3,1961,5,1,1,1,,,8,4,16,15
https://nn.cian.ru/sale/flat/298879466/,2024-03-19 18:26:00,3950000,1,"Нижегородская область, Нижний Новгород, р-н Автозаводский, мкр. Мончегорский, ул. Мончегорская, 18к4",56.2311811,43.822097299999996,Автозаводский район,Nizhny Novgorod Oblast,Nizhny Novgorod,Мончегорская улица,18 к4,3,9,1,34.2,17.0,7.8,,,1990,4,1,1,,1,1,4,,15,10
https://nn.cian.ru/sale/flat/284065974/,2024-03-18 13:40:00,3300000,1,"Нижегородская область, Нижний Новгород, р-н Ленинский, мкр. Молитовка, ул. Профинтерна, 7А",56.281574250000006,43.93988865,Ленинский район,Nizhny Novgorod Oblast,Nizhny Novgorod,улица Профинтерна,7А,2,6,1,20.5,10.4,5.1,,3,1972,,1,1,,,,12,2,22,16
https://nn.cian.ru/sale/flat/293246824/,2024-03-18 15:10:00,3600000,1,"Нижегородская область, Нижний Новгород, р-н Приокский, мкр. Дубенки, ул. Глазунова, 3А",56.2608546,43.98721795396904,Приокский район,Nizhny Novgorod Oblast,Nizhny Novgorod,улица Глазунова,3А,1,2,1,31.8,20.8,6.0,2.9,,1958,5,,1,,,,6,1,6,11
https://nn.cian.ru/sale/flat/299365306/,2024-03-19 21:10:00,3400000,1,"Нижегородская область, Нижний Новгород, р-н Ленинский, мкр. Молитовка, ул. Профинтерна, 7А",56.281574250000006,43.93988865,Ленинский район,Nizhny Novgorod Oblast,Nizhny Novgorod,улица Профинтерна,7А,6,6,1,20.3,,5.1,,3,1972,,,1,,,,12,2,22,16
https://nn.cian.ru/sale/flat/298089607/,2024-02-27 09:32:00,3800000,1,"Нижегородская область, Нижний Новгород, р-н Приокский, мкр. Щербинки, ул. Петровского, 5А",56.24856935,43.97870940720428,Приокский район,Nizhny Novgorod Oblast,Nizhny Novgorod,улица Петровского,5А,4,6,1,36.0,20.0,8.5,2.5,,1989,1,1,1,1,,1,1,,6,4
https://nn.cian.ru/sale/flat/295920478/,2024-03-19 16:33:00,3700000,1,"Нижегородская область, Нижний Новгород, р-н Московский, мкр. Красные зори, ул. Героя Рябцева, 29",56.32185,43.86485622720946,Московский район,Nizhny Novgorod Oblast,Nizhny Novgorod,улица Героя Рябцева,29,1,4,1,32.0,19.2,5.6,2.5,3,1961,1,1,1,,,,8,5,14,10
https://nn.cian.ru/sale/flat/299648464/,2024-03-19 17:41:00,2600000,1,"Нижегородская область, Нижний Новгород, р-н Автозаводский, мкр. Народная стройка, Нарвская ул., 13",56.22853105,43.85268602582944,Автозаводский район,Nizhny Novgorod Oblast,Nizhny Novgorod,Нарвская улица,13,1,2,1,30.0,17.0,5.6,,3,1958,5,,1,,,,14,1,19,16
https://nn.cian.ru/sale/flat/299252520/,2024-03-15 12:32:00,2980000,1,"Нижегородская область, Нижний Новгород, р-н Ленинский, мкр. Двигатель Революции, Юпитерская ул., 12",56.2772944,43.928610082981635,Ленинский район,Nizhny Novgorod Oblast,Nizhny Novgorod,Юпитерская улица,12,2,2,1,32.9,20.5,6.5,2.8,,1959,5,,1,,,,12,2,22,20
https://nn.cian.ru/sale/flat/296378877/,2024-03-18 10:40:00,3000000,1,"Нижегородская область, Нижний Новгород, р-н Автозаводский, мкр. Северный, ул. Дворовая, 29",56.26573835,43.87015722179106,Автозаводский район,Nizhny Novgorod Oblast,Nizhny Novgorod,Дворовая улица,29,4,5,1,27.8,17.8,5.0,2.5,,1973,1,2,1,1,,,8,3,19,20
https://nn.cian.ru/sale/flat/299520743/,2024-03-18 18:40:00,3350000,1,"Нижегородская область, Нижний Новгород, р-н Сормовский, мкр. Светлоярский, ул. Станиславского, 25",56.35385375,43.83426451294068,Сормовский район,Nizhny Novgorod Oblast,Nizhny Novgorod,улица Станиславского,25,2,3,1,31.0,16.1,5.4,,,1959,,,1,,1,,7,6,11,15
https://nn.cian.ru/sale/flat/295181612/,2024-03-19 18:12:00,3990000,1,"Нижегородская область, Нижний Новгород, р-н Автозаводский, мкр. Северный, просп. Бусыгина, 49",56.2729145,43.88301646923712,Автозаводский район,Nizhny Novgorod Oblast,Nizhny Novgorod,проспект Бусыгина,49,2,9,1,35.5,18.1,8.8,,3,1986,1,,1,,1,1,5,5,12,11
https://nn.cian.ru/sale/flat/298085341/,2024-03-19 09:13:00,2800000,1,"Нижегородская область, Нижний Новгород, р-н Ленинский, мкр. Двигатель Революции, ул. Паскаля, 5",56.26825505,43.930920420964675,Ленинский район,Nizhny Novgorod Oblast,Nizhny Novgorod,улица Паскаля,5,2,2,1,26.0,11.0,10.0,2.8,3,1952,,2,1,1,,,6,1,14,18
https://nn.cian.ru/sale/flat/297582848/,2024-03-19 14:10:00,3800000,1,"Нижегородская область, Нижний Новгород, р-н Автозаводский, мкр. Соцгород, просп. Ильича, 7",56.2446472,43.8616525011275,Автозаводский район,Nizhny Novgorod Oblast,Nizhny Novgorod,проспект Ильича,7,4,4,1,39.0,18.9,8.0,,3,1931,1,,1,,,,10,3,21,11
https://nn.cian.ru/sale/flat/298468529/,2024-03-19 17:31:00,3690000,1,"Нижегородская область, Нижний Новгород, р-н Автозаводский, мкр. Соцгород, ул. Лоскутова, 23",56.25362605,43.86199544929764,Автозаводский район,Nizhny Novgorod Oblast,Nizhny Novgorod,улица Лоскутова,23,4,5,1,31.2,19.0,5.5,,,1969,4,,1,,,1,12,2,28,22
https://nn.cian.ru/sale/flat/299731718/,2024-03-18 16:30:00,3990000,1,"Нижегородская область, Нижний Новгород, р-н Советский, мкр. улица Бекетова, ул. Бекетова, 35Б",56.29182215,44.01111855987021,Советский район,Nizhny Novgorod Oblast,Nizhny Novgorod,улица Бекетова,35Б,1,3,1,31.7,21.1,4.6,2.8,3,1962,,1,1,,1,,5,3,7,12
https://nn.cian.ru/sale/flat/297574711/,2024-03-19 13:55:00,3900000,1,"Нижегородская область, Нижний Новгород, р-н Приокский, мкр. Дубенки, Полярная ул., 51",56.256782,43.994997,Приокский район,Nizhny Novgorod Oblast,Nizhny Novgorod,Полярная улица,51,1,4,1,39.0,20.0,14.0,,,,1,,1,,,,5,1,2,3
https://nn.cian.ru/sale/flat/299105003/,2024-03-04 10:53:00,2790000,1,"Нижегородская область, Нижний Новгород, р-н Ленинский, мкр. Молитовка, ул. Усиевича, 15А",56.28008405,43.9354847,Ленинский район,Nizhny Novgorod Oblast,Nizhny Novgorod,улица Усиевича,15А,1,5,1,16.0,10.0,4.0,,3,1968,1,,,,,,14,2,25,21
https://nn.cian.ru/sale/flat/292658965/,2024-03-18 13:25:00,3700000,1,"Нижегородская область, Нижний Новгород, р-н Московский, мкр. Красные зори, Московское ш., 197",56.314811750000004,43.87442125306832,Московский район,Nizhny Novgorod Oblast,Nizhny Novgorod,Московское шоссе,197,3,5,1,30.0,18.0,6.0,2.52,,1960,1,2,1,,,,8,1,12,14
https://nn.cian.ru/sale/flat/288151854/,2024-03-18 13:34:00,2990000,1,"Нижегородская область, Нижний Новгород, р-н Нижегородский, мкр. Центр, Студеная ул., 56",56.31196515,44.0000349680101,Нижегородский район,Nizhny Novgorod Oblast,Nizhny Novgorod,Studenaya ul.,56,2,2,1,31.6,19.6,7.0,,,1917,,,,,,,15,5,22,13
https://nn.cian.ru/sale/flat/299111458/,2024-03-12 22:47:00,3500000,1,"Нижегородская область, Нижний Новгород, р-н Канавинский, мкр. Сортировочный, Камчатский пер., 4",56.30471455,43.849282110570684,Канавинский район,Nizhny Novgorod Oblast,Nizhny Novgorod,Камчатский переулок,4,4,5,1,33.8,17.5,7.6,2.6,3,1988,1,1,1,1,,1,2,,4,2
https://nn.cian.ru/sale/flat/297239688/,2024-03-19 13:10:00,3640000,1,"Нижегородская область, Нижний Новгород, р-н Канавинский, мкр. 15-й квартал, Московское ш., 108А",56.31378705,43.89498949772193,Канавинский район,Nizhny Novgorod Oblast,Nizhny Novgorod,Московское шоссе,108А,5,5,1,31.1,17.5,6.7,,3,1969,,1,1,,,1,6,,7,5
https://nn.cian.ru/sale/flat/298797256/,2024-03-19 08:25:00,3300000,1,"Нижегородская область, Нижний Новгород, р-н Автозаводский, мкр. Мостоотряд, 22",56.243709949999996,43.84530459758338,Автозаводский район,Nizhny Novgorod Oblast,Nizhny Novgorod,улица Ватутина,,1,5,1,29.8,16.5,6.4,,3,1981,1,,1,,,,8,5,15,17
https://nn.cian.ru/sale/flat/275564036/,2024-02-01 16:16:00,2800000,1,"Нижегородская область, Нижний Новгород, р-н Канавинский, мкр. Ленгородок, Украинская ул., 50",56.302008099999995,43.92411690339677,Канавинский район,Nizhny Novgorod Oblast,Nizhny Novgorod,Украинская улица,50,1,27,2,23.0,,,,,2017,,1,1,,,,3,9,7,4
