link,date,price,rooms,full_address,latitude,longitude,city_district,state,city,road,house_number,floor,total_floors,housing_type,total_area,living_area,kitchen_area,ceiling_height,repair,house_year,house_type,windows_view,bathrooms_num,parking,elevators_num,balcony_num,schools,hospitals,grocery_stores,kindergartens
https://kazan.cian.ru/sale/flat/279532898/,2024-03-18 23:10:00,1800000,1,"Татарстан респ., Казань, р-н Авиастроительный, мкр. Новое Караваево, ул. Гудованцева, 22А",,,,,,,,5,5,1,12.7,,,,3,1973,1,,,,,,,,,
https://kazan.cian.ru/sale/flat/293380073/,2024-03-18 13:55:00,1850000,1,"Татарстан респ., Казань, р-н Московский, мкр. Жилплощадка, ул. Гудованцева, 3",55.8626299,49.01821575,Московский район,Tatarstan,Kazan,улица Гудованцева,3,1,5,1,21.2,11.2,5.0,,,1974,1,2,1,,,,3,1,3,5
https://kazan.cian.ru/sale/flat/285715473/,2024-03-19 00:25:00,2000000,1,"Татарстан респ., Казань, р-н Авиастроительный, мкр. Караваево, ул. Дементьева, 7А",55.858928199999994,49.10134295115938,Авиастроительный район,Tatarstan,Kazan,улица Дементьева,7А,2,9,1,17.0,,,,3,1975,1,,,,1,,8,2,20,14
https://kazan.cian.ru/sale/flat/295245601/,2024-03-14 07:20:00,1750000,1,"Татарстан респ., Казань, р-н Кировский, мкр. Юдино, Бирюзовая ул., 19",55.81960945,48.88553409984781,Кировский район,Tatarstan,Kazan,Biryusovaya Street,19,4,4,1,17.4,12.0,3.0,2.6,3,1965,1,2,,1,,,3,,5,6
https://kazan.cian.ru/sale/flat/295680427/,2024-03-18 19:40:00,2000000,1,"Татарстан респ., Казань, р-н Московский, мкр. поселок Урицкого, ул. Восстания, 92",55.8324547,49.05319325055689,Московский район,Tatarstan,Kazan,улица Восстания,92,2,5,1,12.6,2.6,5.0,0.0,,,1,,,,,,11,6,23,12
https://kazan.cian.ru/sale/flat/294507220/,2024-03-18 19:11:00,1800000,1,"Татарстан респ., Казань, р-н Советский, ул. Шуртыгина, 34",55.78712695,49.17426535,Советский район,Tatarstan,Kazan,улица Шуртыгина,34,3,3,1,12.7,4.7,3.0,,,1964,1,1,,,,,7,3,18,14
https://kazan.cian.ru/sale/flat/299396370/,2024-03-18 12:25:00,1900000,1,"Татарстан респ., Казань, р-н Авиастроительный, мкр. Северный, Беломорская ул., 106",55.86627855,49.054514129360655,Авиастроительный район,Tatarstan,Kazan,Belomorskaya Street,106,3,5,1,17.0,8.0,4.0,,3,1976,1,1,1,,,,5,,3,3
https://kazan.cian.ru/sale/flat/297411390/,2024-03-19 15:21:00,2000000,1,"Татарстан респ., Казань, Шоссейный пер., 7",55.809459849999996,49.08187224951876,Кировский район,Tatarstan,Kazan,Шоссейный переулок,7,5,5,1,14.6,6.6,3.0,,,1968,1,,,,,,2,,14,6
https://kazan.cian.ru/sale/flat/294550837/,2024-12-07 11:57:00,1600000,1,"Татарстан респ., Казань, р-н Московский, мкр. Жилплощадка, ул. Химиков, 9",55.8634225,49.0156042,Московский район,Tatarstan,Kazan,улица Химиков,9,4,5,1,13.1,13.1,,2.6,3,1968,1,2,,1,,,3,2,4,5
https://kazan.cian.ru/sale/flat/298810521/,2024-03-19 00:40:00,1770000,1,"Татарстан респ., Казань, р-н Московский, мкр. Жилплощадка, ул. Гудованцева, 47",55.87759885,49.019776860778634,Московский район,Tatarstan,Kazan,улица Гудованцева,47,5,5,1,12.4,,,,,1973,1,,,,,,3,,4,4
https://kazan.cian.ru/sale/flat/299076675/,2024-03-19 00:40:00,2000000,1,"Татарстан респ., Казань, р-н Московский, мкр. Жилплощадка, ул. Химиков, 33",55.8707772,49.016237027859695,Московский район,Tatarstan,Kazan,улица Химиков,33,2,5,1,12.7,,,,,1967,1,,,,,,4,1,7,7
https://kazan.cian.ru/sale/flat/297919009/,2024-03-19 00:40:00,2000000,1,"Татарстан респ., Казань, р-н Советский, мкр. кварталы 29,30, ул. Академика Кирпичникова, 27",55.814017,49.1840648,Советский район,Tatarstan,Kazan,улица Академика Кирпичникова,27,2,5,1,13.0,,,,3,1963,1,,,,,,9,7,10,10
https://kazan.cian.ru/sale/flat/292018001/,2024-03-19 00:10:00,1500000,1,"Татарстан респ., Казань, р-н Советский, мкр. Дербышки, Тополевая ул., 55",55.8746212,49.22930118492894,Советский район,Tatarstan,Kazan,Тополевая улица,55,9,9,1,12.6,,,,3,1988,1,,,,1,,4,,10,6
https://kazan.cian.ru/sale/flat/295648534/,2024-02-26 11:24:00,1950000,1,"Татарстан респ., Казань, р-н Авиастроительный, мкр. Новое Караваево, ул. Гудованцева, 22А",,,,,,,,1,5,1,12.8,9.0,,,3,1973,1,1,1,,,,,,,
https://kazan.cian.ru/sale/flat/295778670/,2024-03-19 00:25:00,1800000,9,"Татарстан респ., Казань, р-н Советский, мкр. Дербышки, ул. Солидарности, 14",55.86068805,49.2279678,Советский район,Tatarstan,Kazan,улица Солидарности,14,2,5,1,12.3,,,,3,1972,1,,,,,1,7,,19,15
https://kazan.cian.ru/sale/flat/298073212/,2024-03-19 00:40:00,1820000,9,"Татарстан респ., Казань, р-н Московский, мкр. Жилплощадка, ул. Химиков, 35",55.87077295,49.01709805653148,Московский район,Tatarstan,Kazan,улица Химиков,35,5,5,1,12.7,7.6,,,3,1967,1,,,,,,4,1,7,7
https://kazan.cian.ru/sale/flat/299051141/,2024-03-18 19:07:00,2000000,9,"Татарстан респ., Казань, р-н Московский, мкр. Жилплощадка, ул. Химиков, 3",55.8651168,49.0157304,Московский район,Tatarstan,Kazan,улица Химиков,17,5,5,1,13.9,8.9,,2.58,3,1968,4,1,1,,,,3,2,6,6
https://kazan.cian.ru/sale/flat/291841838/,2024-03-19 00:10:00,2000000,9,"Татарстан респ., Казань, р-н Московский, ул. Восстания, 93а",,,,,,,,5,5,1,12.6,,,,2,1971,1,,,,,1,,,,
https://kazan.cian.ru/sale/flat/295659856/,2024-03-19 16:55:00,2180000,1,"Татарстан респ., Казань, р-н Авиастроительный, мкр. Новое Караваево, ул. Гудованцева, 22",55.86926895,49.02187558783708,Авиастроительный район,Tatarstan,Kazan,улица Гудованцева,22,5,5,1,16.3,8.3,3.0,,3,1972,1,1,1,,,,4,1,7,7
https://kazan.cian.ru/sale/flat/296893773/,2024-02-24 13:08:00,1900000,9,"Татарстан респ., Казань, р-н Советский, мкр. Дербышки, ул. Солидарности, 14",55.86068805,49.2279678,Советский район,Tatarstan,Kazan,улица Солидарности,14,4,5,1,23.0,13.0,10.0,2.5,3,1972,1,,,,1,,7,,19,15
https://kazan.cian.ru/sale/flat/296359639/,2024-03-19 00:25:00,1500000,9,"Татарстан респ., Казань, р-н Советский, мкр. Дербышки, ул. Солидарности, 14",55.86068805,49.2279678,Советский район,Tatarstan,Kazan,улица Солидарности,14,2,5,1,12.3,,,,,1972,1,,,,,1,7,,19,15
https://kazan.cian.ru/sale/flat/291608720/,2024-03-18 23:27:00,1850000,9,"Татарстан респ., Казань, р-н Приволжский, мкр. Теплоконтроль, Авангардная ул., 91",55.74617575,49.14391945954229,Приволжский район,Tatarstan,Kazan,Avangardnaya Street,91,1,5,1,14.0,,,,3,1971,1,,,,,,3,,4,4
https://kazan.cian.ru/sale/flat/294962407/,2024-03-18 08:08:00,2099999,9,"Татарстан респ., Казань, р-н Московский, мкр. Жилплощадка, ул. Химиков, 3",55.8651168,49.0157304,Московский район,Tatarstan,Kazan,улица Химиков,17,5,5,1,16.7,16.7,,2.48,2,1968,4,1,1,1,,,3,2,6,6
https://kazan.cian.ru/sale/flat/286356137/,2024-03-19 00:40:00,1800000,9,"Татарстан респ., Казань, р-н Авиастроительный, мкр. Соцгород, ул. Белинского, 39",55.85265445,49.070618151080524,Авиастроительный район,Tatarstan,Kazan,улица Белинского,39,5,5,1,13.4,,,,3,1974,1,,,,,,9,1,17,12
https://kazan.cian.ru/sale/flat/298824162/,2024-03-19 12:10:00,2400000,1,"Татарстан респ., Казань, р-н Московский, мкр. Жилплощадка, ул. Гудованцева, 1",55.8626136,49.019182651180124,Московский район,Tatarstan,Kazan,улица Гудованцева,1,4,5,1,24.0,9.0,10.0,,3,1974,1,1,1,,,1,3,1,3,5
https://kazan.cian.ru/sale/flat/298839633/,2024-03-19 14:15:00,3100000,1,"Татарстан респ., Казань, р-н Московский, мкр. Жилплощадка, ул. Гудованцева, 47",55.87759885,49.019776860778634,Московский район,Tatarstan,Kazan,улица Гудованцева,47,4,5,1,25.1,18.9,3.9,2.7,3,1973,1,1,1,,,,3,,4,4
https://kazan.cian.ru/sale/flat/293595978/,2024-03-19 16:57:00,3050000,1,"Татарстан респ., Казань, р-н Авиастроительный, мкр. Караваево, ул. Лукина, 5",55.85993055,49.08917397765309,Авиастроительный район,Tatarstan,Kazan,улица Лукина,5,1,2,1,28.0,18.0,5.0,,3,1951,1,1,1,,,,16,3,37,25
https://kazan.cian.ru/sale/flat/299573600/,2024-03-13 22:20:00,3700000,1,"Татарстан респ., Казань, р-н Советский, мкр. Дербышки, ул. 3-я Кленовая, 9Б",,,,,,,,5,5,1,34.7,20.5,6.7,2.48,2,1998,1,2,1,1,,1,,,,
https://kazan.cian.ru/sale/flat/298254653/,2024-03-19 17:00:00,3000000,1,"Татарстан респ., Казань, р-н Авиастроительный, мкр. Свердлова, ул. Челюскина, 60А",,,,,,,,1,2,1,32.0,19.0,7.0,,3,1958,1,,1,,,,,,,
https://kazan.cian.ru/sale/flat/294850847/,2024-03-18 17:36:00,3850000,1,"Татарстан респ., Казань, р-н Приволжский, ул. Ярышлар, 6",55.680304,49.201712790488386,Приволжский район,Tatarstan,Kazan,улица Ярышлар,6,9,19,1,25.0,15.0,5.0,,3,2021,3,,1,,1,1,,,4,2
https://kazan.cian.ru/sale/flat/290277787/,2024-03-18 19:19:00,3250000,1,"Татарстан респ., Казань, р-н Советский, мкр. Дербышки, ул. 3-я Кленовая, 9",,,,,,,,3,5,1,34.8,19.3,8.2,2.7,3,,1,1,1,,,1,,,,
https://kazan.cian.ru/sale/flat/292597594/,2024-03-16 20:03:00,3990000,1,"Татарстан респ., Казань, р-н Московский, мкр. Жилплощадка, ул. Гудованцева, 43к2",,,,,,,,3,5,1,35.2,19.4,7.7,2.7,,1983,1,,,,,1,,,,
https://kazan.cian.ru/sale/flat/296640969/,2024-03-19 15:29:00,3990000,1,"Татарстан респ., Казань, р-н Советский, ул. Шуртыгина, 24",55.789840850000004,49.17574603836957,Советский район,Tatarstan,Kazan,улица Шуртыгина,24,4,9,1,19.4,9.4,5.0,,3,1976,1,1,1,,1,,9,4,20,12
https://kazan.cian.ru/sale/flat/281182211/,2024-02-23 09:58:00,3649998,1,"Татарстан респ., Казань, р-н Приволжский, ул. Павлюхина, 102",55.7709284,49.142777751355354,Приволжский район,Tatarstan,Kazan,Pavlyukhina Street,102,1,5,1,20.0,,5.0,,1,1936,4,1,1,,,,7,,26,13
https://kazan.cian.ru/sale/flat/291713132/,2024-03-16 18:55:00,3999999,1,"Татарстан респ., Казань, р-н Советский, мкр. Дербышки, ул. Солидарности, 24",55.8594244,49.230614200000005,Советский район,Tatarstan,Kazan,улица Солидарности,24,6,9,1,30.0,18.0,6.0,0.0,,1979,1,,,,,,7,,18,12
https://kazan.cian.ru/sale/flat/297787401/,2024-03-19 08:55:00,2600000,1,"Татарстан респ., Казань, р-н Приволжский, мкр. Поповка, ул. 2-я Гаражная, 4",,,,,,,,4,5,1,22.8,13.9,3.9,,3,1978,1,1,1,,,,,,,
https://kazan.cian.ru/sale/flat/299346872/,2024-03-19 00:25:00,3400000,1,"Татарстан респ., Казань, р-н Советский, мкр. Дербышки, ул. Солидарности, 4",55.8614861,49.2262682,Советский район,Tatarstan,Kazan,улица Солидарности,4,5,5,1,30.1,,,,3,1973,1,,,,,1,8,,19,15
https://kazan.cian.ru/sale/flat/299247329/,2024-03-19 15:29:00,3290000,1,"Татарстан респ., Казань, р-н Авиастроительный, мкр. Свердлова, ул. Айдарова, 12",55.8686917,49.0854479,Авиастроительный район,Tatarstan,Kazan,улица Айдарова,12,2,2,1,36.1,21.5,8.5,2.78,,1958,1,,1,,,,10,2,34,20
https://kazan.cian.ru/sale/flat/294853217/,2024-03-18 17:35:00,2650000,1,"Татарстан респ., Казань, р-н Ново-Савиновский, ул. Короленко, 40",55.8327158,49.1005977,Ново-Савиновский район,Tatarstan,Kazan,улица Короленко,,2,5,1,19.0,9.0,5.0,,3,1963,1,,1,,,,16,1,30,25
https://kazan.cian.ru/sale/flat/298969869/,2024-03-18 19:08:00,3800000,1,"Татарстан респ., Казань, р-н Кировский, ул. Виктора Сажинова, 7/11",55.8632562,48.8769831,Кировский район,Tatarstan,Kazan,улица Виктора Сажинова,,10,18,1,40.5,20.0,12.0,2.7,3,2018,5,1,1,,1,1,2,,10,6
https://kazan.cian.ru/sale/flat/292939403/,2024-03-18 21:30:00,3699000,1,"Татарстан респ., Казань, р-н Авиастроительный, мкр. Караваево, Малая Печерская ул., 8А",55.865746900000005,49.09465901061199,Авиастроительный район,Tatarstan,Kazan,Малая Печёрская улица,8А,1,3,1,31.4,18.4,6.0,2.6,3,1960,1,1,1,,,,11,3,34,21
https://kazan.cian.ru/sale/flat/296519799/,2024-03-18 17:57:00,2400000,1,"Татарстан респ., Казань, р-н Авиастроительный, мкр. Караваево, ул. Дементьева, 7А",55.858928199999994,49.10134295115938,Авиастроительный район,Tatarstan,Kazan,улица Дементьева,7А,4,9,1,12.0,4.0,3.0,,3,1975,1,2,1,,1,,8,2,20,14
https://kazan.cian.ru/sale/flat/299565601/,2024-03-13 18:27:00,3750000,1,"Татарстан респ., Казань, р-н Советский, мкр. Дербышки, ул. Солидарности, 18",55.8601246,49.229284871007195,Советский район,Tatarstan,Kazan,улица Солидарности,18,5,5,1,30.0,18.0,5.7,,3,1970,5,2,1,1,,1,7,,18,13
https://kazan.cian.ru/sale/flat/299719008/,2024-03-18 12:38:00,3150000,1,"Татарстан респ., Казань, р-н Приволжский, мкр. 9,10,11, ул. Кул Гали, 10",55.75020845,49.22843099790789,Приволжский район,Tatarstan,Kazan,улица Кул Гали,10,2,9,1,13.1,13.1,,2.5,3,1990,1,2,,1,2,,11,2,34,17
https://kazan.cian.ru/sale/flat/299401757/,2024-03-08 18:00:00,3990000,1,"Татарстан респ., Казань, р-н Советский, ул. Шуртыгина, 24",55.789840850000004,49.17574603836957,Советский район,Tatarstan,Kazan,улица Шуртыгина,24,4,9,1,19.4,10.0,5.0,2.5,3,1976,1,2,1,,1,,9,4,20,12
https://kazan.cian.ru/sale/flat/294341689/,2024-03-19 14:55:00,3490000,1,"Татарстан респ., Казань, р-н Советский, мкр. Дербышки, Парковая ул.",55.8593338,49.2297105,Советский район,Tatarstan,Kazan,Парковая улица,,6,9,1,36.0,18.0,12.0,2.6,3,,1,1,1,,1,,7,,18,13
https://kazan.cian.ru/sale/flat/298874806/,2024-03-19 10:21:00,3800000,1,"Татарстан респ., Казань, р-н Кировский, мкр. Юдино, Революционная ул., 69",55.8186065,48.90570144807566,Кировский район,Tatarstan,Kazan,Революционная улица,69,3,5,1,34.4,18.0,7.4,,3,2004,1,2,1,1,,1,3,,6,6
https://kazan.cian.ru/sale/flat/299762537/,2024-03-19 12:14:00,3894757,1,"Татарстан респ., Казань, р-н Кировский, мкр. Юдино, Колымская ул., 22",55.81899585,48.87786705555543,Кировский район,Tatarstan,Kazan,Колымская улица,22,4,5,1,32.6,17.6,7.5,2.7,,1996,1,,,,,1,2,1,3,2
https://kazan.cian.ru/sale/flat/299065276/,2024-02-28 16:58:00,3800000,1,"Татарстан респ., Казань, р-н Приволжский, мкр. Теплоконтроль, Авангардная ул., 157",55.739921,49.1455737,Приволжский район,Tatarstan,Kazan,Avangardnaya Street,157,1,2,1,31.9,18.0,6.0,2.8,3,1960,1,1,1,1,,,3,,9,5
https://kazan.cian.ru/sale/flat/299720857/,2024-03-18 13:12:00,3800000,1,"Татарстан респ., Казань, р-н Авиастроительный, мкр. Караваево, ул. Дементьева, 28к2",55.8598932,49.10444175411283,Авиастроительный район,Tatarstan,Kazan,улица Дементьева,28 к2,9,9,1,33.5,16.5,11.4,,3,1978,1,1,1,,1,,6,1,19,13
https://kazan.cian.ru/sale/flat/299250567/,2024-03-19 04:52:00,3750000,1,"Татарстан респ., Казань, р-н Московский, мкр. Жилплощадка, ул. Гудованцева, 49",55.87883595,49.019463900000005,Московский район,Tatarstan,Kazan,улица Гудованцева,49,3,5,1,33.0,18.0,6.0,0.0,,1974,4,,,,,,3,,4,4
https://kazan.cian.ru/sale/flat/292556540/,2024-03-18 23:10:00,3800000,1,"Татарстан респ., Казань, р-н Кировский, мкр. Залесный, ул. Зилантовская, 18",55.86368815,48.873942287601565,Кировский район,Tatarstan,Kazan,Зилантовская улица,18,18,18,1,42.0,,,,3,2017,5,,,,2,1,1,,10,6
https://kazan.cian.ru/sale/flat/299068736/,2024-03-18 19:10:00,3290000,1,"Татарстан респ., Казань, р-н Авиастроительный, мкр. Караваево, ул. 2-я Ленинградская, 10",,,,,,,,2,2,1,22.8,8.8,8.0,0.0,,1952,1,,,,,,,,,
https://kazan.cian.ru/sale/flat/298738130/,2024-03-18 11:25:00,4000000,1,"Татарстан респ., Казань, Окольная ул., 1",55.8230542,49.03809881036205,Кировский район,Tatarstan,Kazan,Окольная улица,1,3,9,1,29.5,13.5,8.0,2.7,3,1993,1,1,1,,1,1,4,3,15,9
https://kazan.cian.ru/sale/flat/298440022/,2024-03-19 10:26:00,3400000,1,"Татарстан респ., Казань, р-н Советский, мкр. Дербышки, Парковая ул., 15",55.860118,49.22343997092459,Советский район,Tatarstan,Kazan,Парковая улица,15,5,5,1,28.7,17.0,6.0,,,1971,4,1,1,,,1,7,,18,14
https://kazan.cian.ru/sale/flat/294991672/,2024-03-18 19:40:00,3600000,1,"Татарстан респ., Казань, р-н Кировский, мкр. Залесный, Хибинская ул., 10",55.8461904,48.90196633021889,Кировский район,Tatarstan,Kazan,Хибинская улица,10,5,5,1,32.7,15.1,6.5,0.0,,1984,4,,,,,1,2,2,8,5
https://kazan.cian.ru/sale/flat/299765438/,2024-03-19 13:12:00,3800000,1,"Татарстан респ., Казань, р-н Приволжский, мкр. Теплоконтроль, Авангардная ул., 157",55.739921,49.1455737,Приволжский район,Tatarstan,Kazan,Avangardnaya Street,157,1,2,1,31.5,20.9,5.6,,3,1960,1,1,1,,,,3,,9,5
https://kazan.cian.ru/sale/flat/298627270/,2024-03-18 23:55:00,3630000,1,"Татарстан респ., Казань, р-н Кировский, мкр. Красная горка, Привокзальная ул., 52",55.8130175,48.90988732285601,Кировский район,Tatarstan,Kazan,Привокзальная улица,52,7,9,1,38.0,16.5,,,3,2013,1,,,,1,1,3,,5,4
https://kazan.cian.ru/sale/flat/298345253/,2024-03-17 21:25:00,3500000,1,"Татарстан респ., Казань, р-н Кировский, мкр. Юдино, ул. Железнодорожников, 15",55.821357649999996,48.8911504752713,Кировский район,Tatarstan,Kazan,улица Железнодорожников,15,9,9,1,36.0,20.0,8.0,,3,1995,1,,1,,1,1,3,,7,8
https://kazan.cian.ru/sale/flat/298972926/,2024-03-18 13:29:00,3580000,1,"Татарстан респ., Казань, р-н Авиастроительный, мкр. Новое Караваево, ул. Гудованцева, 22А",,,,,,,,5,5,1,25.1,13.9,6.2,2.7,2,1973,1,1,,,,,,,,
https://kazan.cian.ru/sale/flat/299745645/,2024-03-18 23:06:00,3599000,1,"Татарстан респ., Казань, р-н Московский, мкр. поселок Урицкого, ул. Фурманова, 27",55.83633695,49.086754285925394,Московский район,Tatarstan,Kazan,улица Фурманова,27,2,3,1,26.5,,,,3,1954,1,,,,,,20,2,37,28
https://kazan.cian.ru/sale/flat/298964538/,2024-03-19 15:25:00,2999999,1,"Татарстан респ., Казань, р-н Авиастроительный, мкр. Соцгород, ул. Побежимова, 47",55.8597405,49.078463364523515,Авиастроительный район,Tatarstan,Kazan,улица Побежимова,47,2,5,1,18.8,10.8,3.0,0.0,,1959,1,,,,,,15,3,31,20
https://kazan.cian.ru/sale/flat/294455759/,2024-03-18 19:25:00,3850000,1,"Татарстан респ., Казань, р-н Авиастроительный, мкр. Свердлова, ул. Челюскина, 66",55.87139555,49.08111294174517,Авиастроительный район,Tatarstan,Kazan,улица Челюскина,66,5,5,1,30.7,17.8,5.5,2.6,,1978,1,,,,,1,10,2,24,13
https://kazan.cian.ru/sale/flat/299541789/,2024-03-19 08:52:00,3350000,1,"Татарстан респ., Казань, р-н Ново-Савиновский, мкр. квартал 11, ул. Восстания, 21",55.834677049999996,49.09466847487189,Ново-Савиновский район,Tatarstan,Kazan,улица Восстания,21,3,5,1,18.5,,,2.9,2,1959,1,,1,1,,1,17,2,38,28
https://kazan.cian.ru/sale/flat/297583674/,2024-03-18 17:36:00,3890000,1,"Татарстан респ., Казань, р-н Кировский, мкр. Юдино, ул. Железнодорожников, 15",55.821357649999996,48.8911504752713,Кировский район,Tatarstan,Kazan,улица Железнодорожников,15,1,10,1,35.3,20.0,9.0,,3,1995,1,,,,1,1,3,,7,8
https://kazan.cian.ru/sale/flat/299512976/,2024-03-18 16:10:00,3693009,1,"Татарстан респ., Казань, р-н Кировский, мкр. Юдино, ул. Железнодорожников, 2",55.820438300000006,48.88429281987805,Кировский район,Tatarstan,Kazan,улица Железнодорожников,2,2,5,1,31.2,18.5,6.0,2.7,2,1965,1,1,1,,,1,2,,5,4
https://kazan.cian.ru/sale/flat/298736026/,2024-03-18 19:09:00,3690000,1,"Татарстан респ., Казань, р-н Кировский, мкр. Юдино, Бирюзовая ул., 17",55.8196521,48.8862138,Кировский район,Tatarstan,Kazan,Biryusovaya Street,17,4,5,1,33.0,18.0,6.0,,3,1963,1,,1,,,1,3,,5,6
https://kazan.cian.ru/sale/flat/297115015/,2024-03-19 10:25:00,3390000,1,"Татарстан респ., Казань, р-н Советский, мкр. Константиновка, ул. Интернациональная, 26",55.8086898,49.2705744,Советский район,Tatarstan,Kazan,Интернациональная улица,26,1,2,1,31.0,17.0,7.0,2.5,3,1975,1,1,1,,,,1,1,4,1
https://kazan.cian.ru/sale/flat/297590282/,2024-03-18 19:10:00,3300000,1,"Татарстан респ., Казань, р-н Кировский, мкр. Пороховая слобода, ул. Димитрова, 8",55.8169579,49.055844993376894,Кировский район,Tatarstan,Kazan,улица Димитрова,8,2,4,1,29.5,19.5,5.0,2.7,,1963,1,,,,,,8,1,19,13
https://kazan.cian.ru/sale/flat/299258748/,2024-03-19 00:40:00,3590000,1,"Татарстан респ., Казань, р-н Кировский, мкр. Юдино, Бирюзовая ул., 23",55.8195981,48.88390459978917,Кировский район,Tatarstan,Kazan,Biryusovaya Street,23,5,5,1,31.8,,,,2,1966,1,,,,,1,2,,4,4
https://kazan.cian.ru/sale/flat/297130869/,2024-02-23 20:59:00,3650000,1,"Татарстан респ., Казань, р-н Советский, мкр. Дербышки, Каштановая ул., 17",55.8624183,49.22632763280617,Советский район,Tatarstan,Kazan,Каштановая улица,17,1,2,1,31.3,18.5,5.9,,3,1961,1,1,1,1,,,8,,20,15
https://kazan.cian.ru/sale/flat/298824162/,2024-03-19 12:10:00,2400000,1,"Татарстан респ., Казань, р-н Московский, мкр. Жилплощадка, ул. Гудованцева, 1",55.8626136,49.019182651180124,Московский район,Tatarstan,Kazan,улица Гудованцева,1,4,5,1,24.0,9.0,10.0,,3,1974,1,1,1,,,1,3,1,3,5
https://kazan.cian.ru/sale/flat/299531223/,2024-03-18 23:09:00,3900000,1,"Татарстан респ., Казань, р-н Московский, мкр. Жилплощадка, ул. Химиков, 61",55.87895895,49.016877550000004,Московский район,Tatarstan,Kazan,улица Химиков,61,4,5,1,29.3,,,,2,1973,1,,,,,1,3,,4,4
https://kazan.cian.ru/sale/flat/293312754/,2024-03-19 10:36:00,3695000,1,"Татарстан респ., Казань, р-н Советский, ул. Зур Урам, 9А",55.806452,49.19645393048845,Советский район,Tatarstan,Kazan,улица Зур Урам,9А,2,4,1,23.4,11.4,7.0,,2,1966,1,1,1,,,,13,2,23,16
https://kazan.cian.ru/sale/flat/299367152/,2024-03-18 11:10:00,3800000,1,"Татарстан респ., Казань, р-н Авиастроительный, мкр. Свердлова, ул. Айдарова, 14",55.86901005,49.083607599049515,Авиастроительный район,Tatarstan,Kazan,улица Айдарова,14,2,2,1,33.1,18.0,9.2,2.85,2,1958,1,,1,,,,10,2,34,19
https://kazan.cian.ru/sale/flat/299531212/,2024-03-14 23:51:00,3800000,1,"Татарстан респ., Казань, р-н Кировский, мкр. Адмиралтейская слобода, ул. Клары Цеткин, 34",55.797988849999996,49.048956611277404,Кировский район,Tatarstan,Kazan,улица Клары Цеткин,34,2,9,1,16.8,,,,2,1986,1,,,,1,1,2,,6,4
https://kazan.cian.ru/sale/flat/298269083/,2024-03-18 17:56:00,3150000,1,"Татарстан респ., Казань, р-н Кировский, мкр. Юдино, Бирюзовая ул., 5",55.8199593,48.89164445432199,Кировский район,Tatarstan,Kazan,Biryusovaya Street,5,3,5,1,30.5,18.0,7.0,2.6,3,1963,1,1,1,,,1,3,,7,8
https://kazan.cian.ru/sale/flat/297126385/,2024-03-18 17:36:00,3890000,1,"Татарстан респ., Казань, р-н Кировский, мкр. Юдино, ул. Железнодорожников, 15",55.821357649999996,48.8911504752713,Кировский район,Tatarstan,Kazan,улица Железнодорожников,15,1,10,1,35.3,20.0,9.0,,3,1995,1,,,,1,1,3,,7,8
https://kazan.cian.ru/sale/flat/299758210/,2024-03-19 10:46:00,3200000,1,"Татарстан респ., Казань, р-н Советский, мкр. Дербышки, ул. Солидарности, 21",55.85989455,49.231115140901856,Советский район,Tatarstan,Kazan,улица Солидарности,21,9,9,1,30.4,12.9,12.9,2.6,3,1979,4,,1,,2,,7,,18,11
https://kazan.cian.ru/sale/flat/296311371/,2024-03-11 10:49:00,2935000,1,"Татарстан респ., Казань, р-н Ново-Савиновский, мкр. квартал 20, Октябрьская ул., 38",55.84246715,49.09507924875338,Ново-Савиновский район,Tatarstan,Kazan,Октябрьская улица,38,5,5,1,21.0,15.0,3.0,2.48,2,1958,1,1,1,,,,10,2,22,18
https://kazan.cian.ru/sale/flat/299632756/,2024-03-19 12:11:00,3500000,1,"Татарстан респ., Казань, р-н Кировский, мкр. Красная горка, Завокзальная ул., 57",55.81155955,48.939258779119854,Кировский район,Tatarstan,Kazan,Завокзальная улица,57,3,5,1,31.0,17.0,6.6,,3,1973,1,1,1,,,1,,,1,1
https://kazan.cian.ru/sale/flat/297853530/,2024-03-18 19:10:00,3700000,1,"Татарстан респ., Казань, р-н Авиастроительный, мкр. Новое Караваево, ул. Гудованцева, 22А",,,,,,,,5,5,1,25.1,16.4,3.7,2.7,,1973,1,,,,,,,,,
https://kazan.cian.ru/sale/flat/296977359/,2024-03-18 11:15:00,3699999,1,"Татарстан респ., Казань, р-н Вахитовский, мкр. Аметьево, Магаданская ул., 18б",,,,,,,,5,9,1,20.7,11.7,4.0,,3,1979,1,1,1,,1,1,,,,
https://kazan.cian.ru/sale/flat/297022299/,2024-03-18 19:40:00,4000000,1,"Татарстан респ., Казань, р-н Кировский, мкр. Юдино, Бирюзовая ул., 18",55.8199912,48.8859324,Кировский район,Tatarstan,Kazan,Biryusovaya Street,18,4,5,1,31.0,21.0,5.0,,1,1966,1,1,1,,,1,3,,5,6
https://kazan.cian.ru/sale/flat/299110180/,2024-03-18 17:37:00,4000000,1,"Татарстан респ., Казань, р-н Авиастроительный, мкр. Соцгород, Тэцевская ул., 23",55.84749955,49.05540055,Авиастроительный район,Tatarstan,Kazan,Тэцевская улица,23,2,4,1,32.0,,6.4,,2,1985,1,2,1,,,,,,7,2
https://kazan.cian.ru/sale/flat/292338053/,2024-03-18 18:40:00,3700000,1,"Татарстан респ., Казань, р-н Советский, мкр. Дербышки, ул. 3-я Кленовая, 9Бк1",,,,,,,,5,5,1,35.9,17.0,8.0,2.7,,1997,1,,,,,1,,,,
https://kazan.cian.ru/sale/flat/285553117/,2024-02-26 12:52:00,3400000,1,"Татарстан респ., Казань, р-н Авиастроительный, мкр. Соцгород, ул. Белинского, 27",55.85346165,49.068291498917674,Авиастроительный район,Tatarstan,Kazan,улица Белинского,27,2,5,1,25.0,16.0,3.0,2.48,3,1970,1,,1,,,,8,1,15,11
https://kazan.cian.ru/sale/flat/297163004/,2024-03-18 19:40:00,4000000,1,"Татарстан респ., Казань, р-н Московский, мкр. Жилплощадка, ул. Химиков, 53",55.874900350000004,49.017977032026565,Московский район,Tatarstan,Kazan,улица Химиков,53,2,5,1,29.8,16.0,6.0,2.7,,1971,1,,,,,1,4,1,6,5
https://kazan.cian.ru/sale/flat/299562823/,2024-03-17 19:41:00,2200000,1,"Татарстан респ., Казань, р-н Советский, мкр. Дербышки, ул. 3-я Кленовая, 9Бк1",,,,,,,,2,5,1,28.1,15.0,7.5,,3,1997,1,1,1,,,1,,,,
https://kazan.cian.ru/sale/flat/299258738/,2024-03-19 00:10:00,3699000,1,"Татарстан респ., Казань, р-н Советский, мкр. Дербышки, ул. Мира, 14",55.739580399999994,49.27025429999999,Приволжский район,Tatarstan,Kazan,Mira Street,14,5,5,1,33.9,,,,,1971,1,,,,2,1,2,,4,
https://kazan.cian.ru/sale/flat/298868510/,2024-03-18 19:40:00,3950000,1,"Татарстан респ., Казань, р-н Авиастроительный, мкр. Караваево, ул. Дементьева, 28к2",55.8598932,49.10444175411283,Авиастроительный район,Tatarstan,Kazan,улица Дементьева,28 к2,9,9,1,33.5,16.5,11.4,0.0,,1978,1,,,,,,6,1,19,13
https://kazan.cian.ru/sale/flat/297285985/,2024-03-18 21:25:00,3600000,1,"Татарстан респ., Казань, р-н Московский, мкр. Жилплощадка, ул. Гудованцева, 35",55.870639249999996,49.01924615,Московский район,Tatarstan,Kazan,улица Гудованцева,35,5,5,1,33.0,18.0,6.0,,,1971,,1,1,,,,4,1,7,7
https://kazan.cian.ru/sale/flat/293078016/,2024-03-18 19:17:00,3999999,1,"Татарстан респ., Казань, р-н Авиастроительный, мкр. Караваево, Молодежная ул., 14А",,,,,,,,4,9,1,21.29,10.9,4.5,2.5,2,2002,1,1,1,,1,1,,,,
https://kazan.cian.ru/sale/flat/297039290/,2024-03-19 16:59:00,3850000,1,"Татарстан респ., Казань, р-н Ново-Савиновский, мкр. квартал 20, Октябрьская ул., 21б",,,,,,,,1,5,1,25.2,,6.0,,3,1978,1,1,1,,,,,,,
https://kazan.cian.ru/sale/flat/299045768/,2024-03-18 12:25:00,3700000,1,"Татарстан респ., Казань, р-н Советский, мкр. Дербышки, Начальная ул., 11а",,,,,,,,1,5,1,30.0,16.6,6.1,2.5,3,1972,1,,,,,,,,,
https://kazan.cian.ru/sale/flat/296615411/,2024-03-19 01:10:00,3198000,1,"Татарстан респ., Казань, р-н Кировский, мкр. Юдино, Колымская ул., 2",55.8190019,48.8863189,Кировский район,Tatarstan,Kazan,Колымская улица,2,1,5,1,32.0,,,,2,1963,1,,,,,1,3,,5,6
https://kazan.cian.ru/sale/flat/298684969/,2024-03-19 10:53:00,3890000,1,"Татарстан респ., Казань, р-н Московский, мкр. Жилплощадка, ул. Химиков, 1",55.86281405,49.01557504829833,Московский район,Tatarstan,Kazan,улица Химиков,1,2,5,1,33.0,17.0,7.0,2.5,3,1969,4,2,1,1,,,3,2,4,5
https://kazan.cian.ru/sale/flat/298832970/,2024-03-18 18:11:00,3800000,1,"Татарстан респ., Казань, р-н Кировский, мкр. Юдино, ул. Ильича, 19/43",55.8188314,48.89983049836401,Кировский район,Tatarstan,Kazan,Революционная улица,43,7,9,1,35.0,18.7,8.0,,,1982,1,1,1,,1,,2,,7,8
https://kazan.cian.ru/sale/flat/298580833/,2024-03-18 23:11:00,3800000,1,"Татарстан респ., Казань, р-н Кировский, мкр. Красная горка, ул. Водников, 56",55.806909250000004,48.920334070675,Кировский район,Tatarstan,Kazan,улица Водников,56,7,9,1,34.0,,,,3,1982,1,,,,1,1,1,,1,1
https://kazan.cian.ru/sale/flat/297078170/,2024-03-18 15:40:00,3550000,1,"Татарстан респ., Казань, р-н Авиастроительный, мкр. Соцгород, ул. Тар Урам, 1А",55.85691545,49.07443392376033,Авиастроительный район,Tatarstan,Kazan,Tar Uram Street,1А,4,5,1,23.7,14.2,4.5,2.6,3,1970,1,1,1,,,,13,2,25,14
https://kazan.cian.ru/sale/flat/298652330/,2024-03-19 15:25:00,3950000,1,"Татарстан респ., Казань, р-н Приволжский, ул. Айрата Хайруллина, 5к2",,,,,,,,5,5,1,19.0,11.0,3.0,,2,1965,4,1,1,,,,,,,
https://kazan.cian.ru/sale/flat/297429707/,2024-03-19 00:40:00,3600000,1,"Татарстан респ., Казань, р-н Кировский, Озеро Лебяжье территория, 7",,,,,,,,2,2,1,46.3,,,,,1997,1,,,,,1,,,,
https://kazan.cian.ru/sale/flat/298844395/,2024-03-19 15:40:00,3800000,1,"Татарстан респ., Казань, р-н Авиастроительный, мкр. Караваево, ул. Дементьева, 28к2",55.8598932,49.10444175411283,Авиастроительный район,Tatarstan,Kazan,улица Дементьева,28 к2,9,9,1,33.5,16.5,11.4,,3,1978,1,2,1,,1,,6,1,19,13
https://kazan.cian.ru/sale/flat/298874781/,2024-03-19 10:23:00,3000000,1,"Татарстан респ., Казань, р-н Кировский, мкр. Юдино, Бирюзовая ул., 23",55.8195981,48.88390459978917,Кировский район,Tatarstan,Kazan,Biryusovaya Street,23,1,5,1,29.9,18.0,6.5,,3,1966,1,1,1,1,,,2,,4,4
https://kazan.cian.ru/sale/flat/298696299/,2024-03-04 13:42:00,3149000,1,"Татарстан респ., Казань, р-н Кировский, мкр. Юдино, Революционная ул., 47",55.819001799999995,48.9035919,Кировский район,Tatarstan,Kazan,Революционная улица,47,4,5,1,29.4,23.0,4.0,2.5,3,1972,1,,1,1,,1,3,,6,6
https://kazan.cian.ru/sale/flat/297996987/,2024-03-04 15:08:00,3550000,1,"Татарстан респ., Казань, р-н Авиастроительный, мкр. Северный, ул. Дубинина, 7",55.86723125,49.05003404860589,Авиастроительный район,Tatarstan,Kazan,улица Володи Дубинина,7,1,9,1,35.5,,,,3,1998,4,1,1,1,1,,3,,2,3
https://kazan.cian.ru/sale/flat/299598474/,2024-03-19 17:02:00,3990000,1,"Татарстан респ., Казань, р-н Советский, ул. Шуртыгина, 24",55.789840850000004,49.17574603836957,Советский район,Tatarstan,Kazan,улица Шуртыгина,24,4,9,1,20.0,,5.0,,3,1976,1,2,1,,,,9,4,20,12
https://kazan.cian.ru/sale/flat/294815405/,2024-03-18 17:02:00,3999000,1,"Татарстан респ., Казань, р-н Авиастроительный, мкр. Свердлова, ул. Айдарова, 20",55.8699347,49.07944844777035,Авиастроительный район,Tatarstan,Kazan,улица Айдарова,20,4,9,1,28.2,17.2,4.5,,3,1982,1,1,1,,1,1,12,2,27,16
https://kazan.cian.ru/sale/flat/299294656/,2024-03-18 19:10:00,3800000,1,"Татарстан респ., Казань, р-н Советский, мкр. Дербышки, ул. Главная, 71Б",,,,,,,,1,4,1,29.7,17.5,5.6,2.5,,1963,1,,,,,,,,,
https://kazan.cian.ru/sale/flat/289977988/,2024-03-18 16:25:00,2299000,1,"Татарстан респ., Казань, р-н Авиастроительный, мкр. Кадышево, ул. Рихарда Зорге, 8",55.7614043,49.184979527671054,Советский район,Tatarstan,Kazan,улица Рихарда Зорге,8,2,2,1,33.0,20.0,5.6,,3,,4,,1,,,,9,4,29,17
https://kazan.cian.ru/sale/flat/296956019/,2024-03-18 08:52:00,3170000,1,"Татарстан респ., Казань, р-н Кировский, мкр. Юдино, ул. Лейтенанта Красикова, 14",55.81990835,48.90109479383234,Кировский район,Tatarstan,Kazan,улица Лейтенанта Красикова,14,5,5,1,32.0,20.0,6.0,,3,1974,1,1,1,,,1,2,,7,7
https://kazan.cian.ru/sale/flat/299039019/,2024-03-19 16:10:00,3490000,1,"Татарстан респ., Казань, р-н Советский, мкр. Дербышки, ул. Водстрой, 8",55.8762538,49.246735650000005,Советский район,Tatarstan,Kazan,улица Водстрой,8,1,3,1,32.0,15.5,9.0,,3,1983,4,2,,,,1,1,,4,1
https://kazan.cian.ru/sale/flat/299395373/,2024-03-08 10:08:00,3700000,1,"Татарстан респ., Казань, р-н Авиастроительный, мкр. Караваево, ул. Дементьева, 31А",,,,,,,,2,5,1,29.7,,,2.48,3,1976,1,2,,,,1,,,,
https://kazan.cian.ru/sale/flat/297793434/,2024-03-18 19:40:00,3950000,1,"Татарстан респ., Казань, р-н Советский, мкр. Константиновка, ул. Интернациональная, 17",55.8076748,49.26805121978292,Советский район,Tatarstan,Kazan,Интернациональная улица,17,1,2,1,30.2,19.2,5.5,0.0,,1980,1,,,,,,1,1,6,1
https://kazan.cian.ru/sale/flat/295858623/,2024-03-18 18:55:00,2824757,1,"Татарстан респ., Казань, р-н Ново-Савиновский, мкр. квартал 20, Октябрьская ул., 38",55.84246715,49.09507924875338,Ново-Савиновский район,Tatarstan,Kazan,Октябрьская улица,38,5,5,1,20.9,10.9,5.0,2.7,,1958,1,,,,,,10,2,22,18
https://kazan.cian.ru/sale/flat/298887744/,2024-03-19 00:40:00,3800000,1,"Татарстан респ., Казань, р-н Ново-Савиновский, мкр. квартал 20, ул. Короленко, 107",55.84197075,49.097194849999994,Ново-Савиновский район,Tatarstan,Kazan,улица Короленко,107,2,2,1,33.8,20.0,,,3,1958,1,,,,,,12,1,20,17
https://kazan.cian.ru/sale/flat/298803968/,2024-03-18 19:55:00,3620000,1,"Татарстан респ., Казань, р-н Советский, мкр. Дербышки, ул. Мира, 47",55.860234950000006,49.21904466744421,Советский район,Tatarstan,Kazan,Mira Street,47,6,9,1,22.0,11.0,5.0,0.0,,1980,1,,,,,1,7,,18,14
https://kazan.cian.ru/sale/flat/294310498/,2024-03-18 16:55:00,3200000,1,"Татарстан респ., Казань, р-н Кировский, мкр. Красная горка, Военный городок-32 территория, 181",,,,,,,,2,2,1,41.6,21.0,9.0,,3,1987,1,1,1,,,1,,,,
https://kazan.cian.ru/sale/flat/298758933/,2024-03-19 00:40:00,3550000,1,"Татарстан респ., Казань, р-н Советский, ул. Аделя Кутуя, 68к1",55.7845175,49.180786791808345,Советский район,Tatarstan,Kazan,улица Аделя Кутуя,68 к1,2,5,1,17.8,,,,3,1969,1,,,,,1,5,,16,13
https://kazan.cian.ru/sale/flat/298835895/,2024-03-18 19:55:00,3800000,1,"Татарстан респ., Казань, р-н Авиастроительный, мкр. Свердлова, ул. Айдарова, 22",55.8699792,49.07847533906529,Авиастроительный район,Tatarstan,Kazan,улица Айдарова,22,8,9,1,21.0,12.0,4.0,0.0,,1980,1,,,,,1,11,2,27,17
https://kazan.cian.ru/sale/flat/295471488/,2024-03-10 15:12:00,3550000,1,"Татарстан респ., Казань, р-н Кировский, мкр. Залесный, Хибинская ул., 4",55.845701399999996,48.90323579596084,Кировский район,Tatarstan,Kazan,Хибинская улица,4,1,2,1,30.0,,5.0,2.5,3,1976,1,1,1,,,,2,2,8,4
https://kazan.cian.ru/sale/flat/298877387/,2024-03-19 10:19:00,3500000,1,"Татарстан респ., Казань, р-н Авиастроительный, мкр. Соцгород, ул. Белинского, 27",55.85346165,49.068291498917674,Авиастроительный район,Tatarstan,Kazan,улица Белинского,27,1,5,1,26.8,13.7,7.0,2.48,3,1970,1,2,1,,,,8,1,15,11
https://kazan.cian.ru/sale/flat/292322542/,2024-03-10 00:07:00,3799000,1,"Татарстан респ., Казань, р-н Кировский, мкр. Пороховая слобода, Юбилейная ул., 9",55.82369505,49.02863316479032,Кировский район,Tatarstan,Kazan,Юбилейная улица,9,2,3,1,31.0,18.0,5.0,2.5,3,1960,1,,,,,1,3,2,6,5
https://kazan.cian.ru/sale/flat/299651986/,2024-03-18 20:10:00,2950000,9,"Татарстан респ., Казань, р-н Приволжский, мкр. Теплоконтроль, Авангардная ул., 185",55.7341917,49.1452696,Приволжский район,Tatarstan,Kazan,Avangardnaya Street,185,8,9,1,17.2,9.2,3.0,0.0,,1983,1,,,,,,3,,9,4
https://kazan.cian.ru/sale/flat/297103671/,2024-03-18 19:14:00,3699000,1,"Татарстан респ., Казань, р-н Вахитовский, мкр. Суконная слобода, ул. Нурсултана Назарбаева, 54",55.7739172,49.1362685,Вахитовский район,Tatarstan,Kazan,Nursultan Nazarbayev Street,54,1,9,1,19.7,8.7,6.0,,3,1971,1,1,1,,1,,7,,24,14
https://kazan.cian.ru/sale/flat/294598763/,2024-03-18 14:12:00,2790000,1,"Татарстан респ., Казань, р-н Приволжский, мкр. Поповка, Техническая ул., 39б",,,,,,,,5,5,1,18.5,9.5,4.0,2.5,2,1983,1,2,1,,,,,,,
https://kazan.cian.ru/sale/flat/299511982/,2024-03-19 17:08:00,3700000,1,"Татарстан респ., Казань, р-н Советский, Кирпичная ул., 1/31",55.782357649999994,49.16701067218453,Советский район,Tatarstan,Kazan,Кирпичная улица,1/31,1,5,1,15.9,6.7,4.2,2.6,1,1968,1,,,,,,5,3,18,11
https://kazan.cian.ru/sale/flat/294697420/,2024-03-12 22:46:00,3900000,1,"Татарстан респ., Казань, р-н Московский, Окольная ул., 94Ак2",,,,,,,,2,5,1,29.9,16.8,2.1,2.77,,1973,1,,,,,,,,,
https://kazan.cian.ru/sale/flat/296516815/,2024-03-19 16:57:00,3800000,1,"Татарстан респ., Казань, р-н Кировский, мкр. Пороховая слобода, Юбилейная ул., 9",55.82369505,49.02863316479032,Кировский район,Tatarstan,Kazan,Юбилейная улица,9,2,3,1,30.5,18.5,5.0,,3,1960,1,1,1,,,,3,2,6,5
https://kazan.cian.ru/sale/flat/298827793/,2024-03-18 17:37:00,3650000,1,"Татарстан респ., Казань, р-н Советский, мкр. Дербышки, ул. Мира, 47",55.860234950000006,49.21904466744421,Советский район,Tatarstan,Kazan,Mira Street,47,6,9,1,22.0,,5.0,2.5,3,1980,1,1,1,,1,1,7,,18,14
https://kazan.cian.ru/sale/flat/299033727/,2024-03-19 00:10:00,3500000,1,"Татарстан респ., Казань, р-н Приволжский, мкр. Горки-1, ул. Гарифьянова, 25",55.7504827,49.204133253846145,Приволжский район,Tatarstan,Kazan,улица Гарифьянова,25,5,9,1,18.0,,,,2,1980,1,,,,1,1,9,2,33,16
https://kazan.cian.ru/sale/flat/298128395/,2024-03-06 14:08:00,2800000,1,"Татарстан респ., Казань, р-н Приволжский, мкр. Теплоконтроль, Авангардная ул., 87",55.74774445,49.14363289524181,Приволжский район,Tatarstan,Kazan,Avangardnaya Street,87,2,9,1,17.3,,,2.5,3,1979,1,2,1,,2,,3,,4,4
https://kazan.cian.ru/sale/flat/256527971/,2024-03-06 23:31:00,2999000,1,"Татарстан респ., Казань, р-н Авиастроительный, мкр. Караваево, Молодежная ул., 8",55.86276075,49.0997120013152,Авиастроительный район,Tatarstan,Kazan,Молодёжная улица,8,4,5,1,17.3,,,2.7,3,1968,1,,2,1,,,11,2,31,17
https://kazan.cian.ru/sale/flat/297918008/,2024-03-19 14:25:00,4000000,1,"Татарстан респ., Казань, р-н Московский, Окольная ул., 94Ак2",,,,,,,,2,5,1,29.9,16.8,2.1,,,1973,1,2,1,,,,,,,
https://kazan.cian.ru/sale/flat/276892459/,2024-03-18 19:55:00,2500000,1,"Татарстан респ., Казань, р-н Московский, мкр. квартал 56, ул. Короленко, 23",55.82442745,49.09978605,Московский район,Tatarstan,Kazan,улица Короленко,23,1,5,1,17.0,9.0,3.0,0.0,,1971,4,,,,,,10,1,41,23
https://kazan.cian.ru/sale/flat/296595348/,2024-03-18 13:12:00,3600000,1,"Татарстан респ., Казань, р-н Кировский, мкр. Залесный, Залесная ул., 18",55.848991749999996,48.90916919670451,Кировский район,Tatarstan,Kazan,Залесная улица,18,2,2,1,30.4,16.4,9.0,,3,1974,1,1,1,,,,3,2,11,8
https://kazan.cian.ru/sale/flat/299531249/,2024-03-17 23:40:00,3500000,1,"Татарстан респ., Казань, р-н Авиастроительный, мкр. Свердлова, ул. Айдарова, 12",55.8686917,49.0854479,Авиастроительный район,Tatarstan,Kazan,улица Айдарова,12,2,2,1,36.1,,,,,1958,1,,,,,1,10,2,34,20
https://kazan.cian.ru/sale/flat/298874732/,2024-03-19 10:23:00,2999000,1,"Татарстан респ., Казань, р-н Кировский, мкр. Залесный, Хибинская ул., 8",55.84633085,48.90350815,Кировский район,Tatarstan,Kazan,Хибинская улица,8,2,2,1,30.3,18.0,6.0,,,1976,4,1,1,1,,,2,2,9,6
https://kazan.cian.ru/sale/flat/299760947/,2024-03-19 11:47:00,2500000,1,"Татарстан респ., Казань, р-н Приволжский, мкр. Теплоконтроль, Авангардная ул., 87",55.74774445,49.14363289524181,Приволжский район,Tatarstan,Kazan,Avangardnaya Street,87,2,9,1,12.0,,3.0,2.5,3,1979,1,2,,,1,,3,,4,4
https://kazan.cian.ru/sale/flat/295481234/,2024-03-19 00:25:00,3350000,1,"Татарстан респ., Казань, р-н Приволжский, мкр. Горки-1, ул. Гарифьянова, 25",55.7504827,49.204133253846145,Приволжский район,Tatarstan,Kazan,улица Гарифьянова,25,7,9,1,17.3,,,,2,1980,1,,,,1,1,9,2,33,16
https://kazan.cian.ru/sale/flat/296084401/,2024-03-19 13:25:00,2300000,1,"Татарстан респ., Казань, р-н Московский, мкр. Жилплощадка, Беломорская ул., 81",55.8661546,49.0162841,Московский район,Tatarstan,Kazan,Belomorskaya Street,81,5,5,1,17.0,9.0,3.0,,2,1966,1,1,1,,,,3,1,6,6
https://kazan.cian.ru/sale/flat/297110206/,2024-02-27 14:53:00,2750000,1,"Татарстан респ., Казань, р-н Кировский, мкр. Красная горка, Вагонная ул., 10",55.8066951,48.94751935090909,Кировский район,Tatarstan,Kazan,Вагонная улица,10,1,2,1,31.0,18.0,6.0,2.55,3,1960,1,1,1,1,,,,,5,3
https://kazan.cian.ru/sale/flat/293002240/,2024-12-22 16:59:00,2500000,1,"Татарстан респ., Казань, р-н Кировский, мкр. Красная горка, Привокзальная ул., 42",55.8141148,48.90656935,Кировский район,Tatarstan,Kazan,Привокзальная улица,42,1,2,1,30.0,19.0,7.0,2.5,2,1962,1,,1,1,,,3,,6,5
https://kazan.cian.ru/sale/flat/295680427/,2024-03-18 19:40:00,2000000,1,"Татарстан респ., Казань, р-н Московский, мкр. поселок Урицкого, ул. Восстания, 92",55.8324547,49.05319325055689,Московский район,Tatarstan,Kazan,улица Восстания,92,2,5,1,12.6,2.6,5.0,0.0,,,1,,,,,,11,6,23,12
https://kazan.cian.ru/sale/flat/299479267/,2024-03-11 19:04:00,3690000,1,"Татарстан респ., Казань, р-н Кировский, мкр. Ягодная слобода, ул. Дежнева, 4к2",,,,,,,,5,5,1,18.0,,,2.7,2,1977,1,1,1,,,,,,,
https://kazan.cian.ru/sale/flat/298873231/,2024-03-15 17:57:00,3600000,1,"Татарстан респ., Казань, р-н Авиастроительный, мкр. Северный, ул. Дубинина, 7",55.86723125,49.05003404860589,Авиастроительный район,Tatarstan,Kazan,улица Володи Дубинина,7,-1,9,1,35.5,20.4,8.6,,,1998,4,1,1,,1,1,3,,2,3
https://kazan.cian.ru/sale/flat/298661139/,2024-03-17 18:12:00,3999000,1,"Татарстан респ., Казань, р-н Кировский, мкр. Ягодная слобода, ул. Дежнева, 2к2",,,,,,,,5,5,1,22.7,13.7,4.0,2.7,,1975,1,,,,,,,,,
https://kazan.cian.ru/sale/flat/293251332/,2024-02-29 14:26:00,2600000,1,"Татарстан респ., Казань, р-н Авиастроительный, мкр. Соцгород, ул. Белинского, 27",55.85346165,49.068291498917674,Авиастроительный район,Tatarstan,Kazan,улица Белинского,27,4,5,1,19.0,,4.0,2.48,3,1970,1,1,1,,,,8,1,15,11
https://kazan.cian.ru/sale/flat/288275835/,2024-02-25 23:58:00,3390000,1,"Татарстан респ., Казань, р-н Советский, мкр. Дербышки, ул. Водстрой, 3",55.875470250000006,49.24746901135754,Советский район,Tatarstan,Kazan,улица Водстрой,3,1,2,1,32.2,17.0,6.0,,3,1971,3,2,1,,,,1,,4,1
https://kazan.cian.ru/sale/flat/278810396/,2024-03-06 23:31:00,2850000,1,"Татарстан респ., Казань, р-н Московский, мкр. Жилплощадка, ул. Гудованцева, 45",55.877579,49.02063755077356,Московский район,Tatarstan,Kazan,улица Гудованцева,45,2,5,1,18.1,,,2.77,3,1972,1,1,1,1,,,3,,4,4
https://kazan.cian.ru/sale/flat/297861365/,2024-03-19 00:40:00,4000000,1,"Татарстан респ., Казань, р-н Кировский, мкр. Юдино, Бирюзовая ул., 18",55.8199912,48.8859324,Кировский район,Tatarstan,Kazan,Biryusovaya Street,18,4,5,1,31.3,,,,2,1966,1,,,,,1,3,,5,6
https://kazan.cian.ru/sale/flat/299676717/,2024-03-18 20:25:00,2530000,1,"Татарстан респ., Казань, р-н Приволжский, мкр. Теплоконтроль, Актайская ул., 7А",55.74571995,49.1405565,Приволжский район,Tatarstan,Kazan,Aktayskaya Street,7А,5,5,1,17.9,9.9,3.0,,3,1968,1,1,1,,,,3,,4,4
https://kazan.cian.ru/sale/flat/299369093/,2024-03-19 15:25:00,2300000,1,"Татарстан респ., Казань, р-н Московский, мкр. Жилплощадка, ул. Гудованцева, 45",55.877579,49.02063755077356,Московский район,Tatarstan,Kazan,улица Гудованцева,45,4,5,1,18.0,10.0,3.0,,,1972,1,,1,,,,3,,4,4
https://kazan.cian.ru/sale/flat/297381984/,2024-03-17 23:38:00,3850000,1,"Татарстан респ., Казань, р-н Авиастроительный, мкр. Свердлова, ул. Айдарова, 22",55.8699792,49.07847533906529,Авиастроительный район,Tatarstan,Kazan,улица Айдарова,22,8,9,1,21.0,13.0,,,2,1980,1,,,,,1,11,2,27,17
https://kazan.cian.ru/sale/flat/298223889/,2024-03-11 13:05:00,2690000,1,"Татарстан респ., Казань, р-н Московский, мкр. Жилплощадка, Беломорская ул., 81",55.8661546,49.0162841,Московский район,Tatarstan,Kazan,Belomorskaya Street,81,1,5,1,18.0,,,2.48,2,1966,1,1,1,,,,3,1,6,6
https://kazan.cian.ru/sale/flat/293741652/,2024-03-18 15:10:00,2600000,1,"Татарстан респ., Казань, р-н Авиастроительный, мкр. Караваево, Молодежная ул., 10А",,,,,,,,3,5,1,17.0,7.0,5.0,,,1981,1,,,,,,,,,
https://kazan.cian.ru/sale/flat/297931591/,2024-03-05 06:40:00,3850000,1,"Татарстан респ., Казань, р-н Кировский, мкр. Ягодная слобода, ул. Дежнева, 2к1",,,,,,,,3,5,1,18.0,,,2.7,2,2010,1,1,1,,,,,,,
https://kazan.cian.ru/sale/flat/264575002/,2024-03-06 23:31:00,2850000,1,"Татарстан респ., Казань, р-н Авиастроительный, мкр. Соцгород, ул. Тар Урам, 1А",55.85691545,49.07443392376033,Авиастроительный район,Tatarstan,Kazan,Tar Uram Street,1А,5,5,1,17.8,,,2.48,3,1970,1,,1,,,,13,2,25,14
https://kazan.cian.ru/sale/flat/297832784/,2024-03-19 14:40:00,2799000,1,"Татарстан респ., Казань, р-н Приволжский, мкр. Поповка, ул. 2-я Гаражная, 4к1",,,,,,,,1,5,1,22.6,12.8,4.8,,3,,1,1,1,,,,,,,
https://kazan.cian.ru/sale/flat/298825518/,2024-02-21 11:48:00,3800000,1,"Татарстан респ., Казань, р-н Кировский, мкр. Юдино, ул. Ильича, 19/43",55.8188314,48.89983049836401,Кировский район,Tatarstan,Kazan,Революционная улица,43,9,9,1,34.6,18.0,8.5,2.5,2,1982,1,1,1,1,1,,2,,7,8
https://kazan.cian.ru/sale/flat/295659856/,2024-03-19 16:55:00,2180000,1,"Татарстан респ., Казань, р-н Авиастроительный, мкр. Новое Караваево, ул. Гудованцева, 22",55.86926895,49.02187558783708,Авиастроительный район,Tatarstan,Kazan,улица Гудованцева,22,5,5,1,16.3,8.3,3.0,,3,1972,1,1,1,,,,4,1,7,7
https://kazan.cian.ru/sale/flat/292686946/,2024-03-19 05:25:00,2350000,,"Татарстан респ., Казань, р-н Советский, мкр. Царицыно, Ново-Азинская ул., 47",55.814793,49.1963803,Советский район,Tatarstan,Kazan,Ново-Азинская улица,47,5,5,1,13.1,,,0.0,,1985,1,,,,,,10,2,14,10
https://kazan.cian.ru/sale/flat/298348188/,2024-03-19 00:40:00,3300000,1,"Татарстан респ., Казань, р-н Московский, ул. Восстания, 93а",,,,,,,,4,5,1,17.6,,,,2,1971,1,,,,,1,,,,
https://kazan.cian.ru/sale/flat/295660976/,2024-03-18 08:25:00,2299000,1,"Татарстан респ., Казань, р-н Московский, мкр. Жилплощадка, ул. Химиков, 45А",,,,,,,,5,5,1,18.0,10.0,3.0,,3,1968,4,1,1,,,,,,,
https://kazan.cian.ru/sale/flat/299618505/,2024-03-15 23:36:00,3650000,1,"Татарстан респ., Казань, р-н Московский, мкр. Жилплощадка, ул. Гудованцева, 31",55.8712472,49.02006625,Московский район,Tatarstan,Kazan,улица Гудованцева,31,2,5,1,21.1,,,,2,1970,1,,,,,1,4,1,7,7
https://kazan.cian.ru/sale/flat/299544720/,2024-03-19 11:40:00,2150000,1,"Татарстан респ., Казань, р-н Авиастроительный, мкр. Новое Караваево, ул. Гудованцева, 22А",,,,,,,,3,5,1,12.7,4.7,3.0,,3,1973,1,1,1,,,,,,,
https://kazan.cian.ru/sale/flat/297429746/,2024-03-18 23:11:00,3350000,1,"Татарстан респ., Казань, р-н Приволжский, тракт Оренбургский, 2",55.76298665,49.14896077631177,Приволжский район,Tatarstan,Kazan,Orenburgskiy Trakt,2,5,9,1,17.3,,,,2,1975,1,,,,1,1,4,,21,7
https://kazan.cian.ru/sale/flat/264898169/,2024-03-06 23:31:00,2750000,1,"Татарстан респ., Казань, р-н Московский, мкр. Жилплощадка, ул. Гудованцева, 45",55.877579,49.02063755077356,Московский район,Tatarstan,Kazan,улица Гудованцева,45,4,5,1,18.2,,,2.48,3,1972,1,2,1,1,,,3,,4,4
https://kazan.cian.ru/sale/flat/299200093/,2024-03-05 16:50:00,2180000,1,"Татарстан респ., Казань, р-н Авиастроительный, мкр. Караваево, ул. 2-я Ленинградская, 14",,,,,,,,1,2,1,20.0,,,2.5,3,1952,1,1,1,1,,,,,,
https://kazan.cian.ru/sale/flat/298073222/,2024-03-19 00:40:00,3300000,1,"Татарстан респ., Казань, р-н Авиастроительный, мкр. Свердлова, ул. Челюскина, 60А",,,,,,,,1,2,1,32.0,,,,,1958,1,,,,,1,,,,
https://kazan.cian.ru/sale/flat/295878573/,2024-03-01 15:13:00,2990000,1,"Татарстан респ., Казань, р-н Приволжский, мкр. Теплоконтроль, Актайская ул., 7А",55.74571995,49.1405565,Приволжский район,Tatarstan,Kazan,Aktayskaya Street,7А,3,5,1,19.0,,,2.5,3,1968,1,,1,1,,,3,,4,4
https://kazan.cian.ru/sale/flat/289884229/,2024-03-18 20:10:00,2550000,1,"Татарстан респ., Казань, р-н Московский, мкр. Жилплощадка, ул. Химиков, 35",55.87077295,49.01709805653148,Московский район,Tatarstan,Kazan,улица Химиков,35,3,5,1,17.4,8.4,4.0,2.7,,1967,1,,,,,,4,1,7,7
https://kazan.cian.ru/sale/flat/295379688/,2024-03-19 01:25:00,3200000,1,"Татарстан респ., Казань, р-н Московский, мкр. Жилплощадка, ул. Гудованцева, 47",55.87759885,49.019776860778634,Московский район,Tatarstan,Kazan,улица Гудованцева,47,4,5,1,25.1,,,,3,1973,1,,,,,1,3,,4,4
https://kazan.cian.ru/sale/flat/295999609/,2024-03-19 00:25:00,3550000,1,"Татарстан респ., Казань, р-н Советский, мкр. Дербышки, ул. Мира, 47",55.860234950000006,49.21904466744421,Советский район,Tatarstan,Kazan,Mira Street,47,1,9,1,20.6,,,,3,1980,1,,,,1,1,7,,18,14
https://kazan.cian.ru/sale/flat/289793229/,2024-03-19 00:25:00,3999000,1,"Татарстан респ., Казань, р-н Авиастроительный, мкр. Соцгород, Индустриальная ул., 13",55.85541235,49.07708869617338,Авиастроительный район,Tatarstan,Kazan,Индустриальная улица,13,1,2,1,31.0,,,,2,1948,1,,,,,,12,2,27,13
https://kazan.cian.ru/sale/flat/296825304/,2024-03-11 21:32:00,4000000,1,"Татарстан респ., Казань, р-н Кировский, ул. Тансык, 1/21",,,,,,,,18,19,1,37.8,19.7,8.9,,3,,,1,1,1,2,1,,,,
https://kazan.cian.ru/sale/flat/297274932/,2024-03-17 23:40:00,4000000,1,"Татарстан респ., Казань, р-н Ново-Савиновский, Апастовская ул., 9",55.8396416,49.11051682592382,Ново-Савиновский район,Tatarstan,Kazan,Апастовская улица,9,1,2,1,30.5,,,,3,1958,1,,,,,,10,,15,12
https://kazan.cian.ru/sale/flat/299485675/,2024-03-19 00:40:00,3600000,1,"Татарстан респ., Казань, р-н Московский, ул. Энергетиков, 2/3",55.8246512,49.0772748,Московский район,Tatarstan,Kazan,улица Энергетиков,,5,5,1,17.5,,,,3,1965,1,,,,,,16,2,46,27
https://kazan.cian.ru/sale/flat/298801821/,2024-02-27 11:07:00,2600000,1,"Татарстан респ., Казань, р-н Советский, мкр. Танкодром, Даурская ул., 33",55.7672307,49.181169291080565,Советский район,Tatarstan,Kazan,Daurskaya Street,33,1,3,1,23.0,17.0,4.0,2.7,,1960,1,2,1,1,,,4,3,17,15
https://kazan.cian.ru/sale/flat/292863930/,2024-03-19 00:10:00,3800000,1,"Татарстан респ., Казань, р-н Кировский, мкр. Пороховая слобода, Юбилейная ул., 9",55.82369505,49.02863316479032,Кировский район,Tatarstan,Kazan,Юбилейная улица,9,2,3,1,31.0,,,,3,1960,1,,,,,1,3,2,6,5
https://kazan.cian.ru/sale/flat/299119326/,2024-03-19 00:10:00,3700000,1,"Татарстан респ., Казань, р-н Авиастроительный, мкр. Свердлова, ул. Айдарова, 12",55.8686917,49.0854479,Авиастроительный район,Tatarstan,Kazan,улица Айдарова,12,2,2,1,33.1,,,,3,1958,1,,,,,1,10,2,34,20
https://kazan.cian.ru/sale/flat/298942610/,2024-02-26 12:23:00,2749000,1,"Татарстан респ., Казань, р-н Кировский, мкр. Красная горка, Вагонная ул., 10",55.8066951,48.94751935090909,Кировский район,Tatarstan,Kazan,Вагонная улица,10,1,2,1,31.0,19.0,7.0,2.4,3,1960,1,,1,,,,,,5,3
https://kazan.cian.ru/sale/flat/299658246/,2024-03-15 23:34:00,2500000,1,"Татарстан респ., Казань, р-н Кировский, мкр. Пороховая слобода, Юбилейная ул., 11",55.82311145,49.02841895857683,Кировский район,Tatarstan,Kazan,Юбилейная улица,11,1,2,1,31.5,,,,3,1960,1,,,,,1,3,2,6,5
https://kazan.cian.ru/sale/flat/298667575/,2024-03-17 23:21:00,3450000,1,"Татарстан респ., Казань, р-н Приволжский, Роторная ул., 9",55.76565155,49.1539779729615,Приволжский район,Tatarstan,Kazan,Rotornaya Street,9,5,5,1,17.6,,,,3,,,,,,,,9,,21,10
https://kazan.cian.ru/sale/flat/298851673/,2024-02-21 22:34:00,3100000,1,"Татарстан респ., Казань, р-н Приволжский, мкр. Теплоконтроль, Авангардная ул., 185",55.7341917,49.1452696,Приволжский район,Tatarstan,Kazan,Avangardnaya Street,185,2,9,1,17.0,,,2.5,1,1983,1,2,1,1,2,,3,,9,4
https://kazan.cian.ru/sale/flat/288859701/,2024-03-19 00:25:00,2980000,1,"Татарстан респ., Казань, р-н Московский, ул. Восстания, 93а",,,,,,,,2,5,1,17.5,,,,3,1971,1,,,,,,,,,
https://kazan.cian.ru/sale/flat/293675998/,2024-03-18 23:10:00,3890000,1,"Татарстан респ., Казань, р-н Советский, мкр. Константиновка, ул. Советская, 1",55.8775061,49.142288611272676,Авиастроительный район,Tatarstan,Kazan,Советская улица,1,2,2,1,39.0,,,,3,,,,,,,1,,,1,
https://kazan.cian.ru/sale/flat/299658223/,2024-03-17 23:40:00,2870000,1,"Татарстан респ., Казань, р-н Советский, Агрызская ул., 78",55.8346188,49.202625100000006,Советский район,Tatarstan,Kazan,Agryzskaya Street,78,3,5,1,18.7,,,,2,1978,1,,,,,,1,,3,
https://kazan.cian.ru/sale/flat/299119308/,2024-03-19 00:10:00,3600000,1,"Татарстан респ., Казань, р-н Кировский, мкр. Ягодная слобода, ул. Дежнева, 4к1",,,,,,,,1,5,1,22.3,,,,3,1975,1,,,,,,,,,
https://kazan.cian.ru/sale/flat/296429460/,2024-03-17 23:40:00,3890000,1,"Татарстан респ., Казань, р-н Авиастроительный, мкр. Караваево, ул. Дементьева, 28к2",55.8598932,49.10444175411283,Авиастроительный район,Tatarstan,Kazan,улица Дементьева,28 к2,9,9,1,33.5,,,,3,1978,1,,,,1,1,6,1,19,13
https://kazan.cian.ru/sale/flat/299346851/,2024-03-19 00:10:00,2900000,1,"Татарстан респ., Казань, р-н Кировский, мкр. Ягодная слобода, Калугинская ул., 4",55.810824,49.08136153941842,Кировский район,Tatarstan,Kazan,Калугинская улица,4,1,5,1,17.6,,,,3,1978,1,,,,,1,3,,18,6
https://kazan.cian.ru/sale/flat/299421301/,2024-03-19 00:25:00,3000000,1,"Татарстан респ., Казань, р-н Приволжский, мкр. Горки-1, ул. Гарифьянова, 25",55.7504827,49.204133253846145,Приволжский район,Tatarstan,Kazan,улица Гарифьянова,25,6,9,1,12.9,,,,2,1980,1,,,,1,1,9,2,33,16
https://kazan.cian.ru/sale/flat/297934973/,2024-02-21 12:38:00,2900000,1,"Татарстан респ., Казань, р-н Московский, мкр. Жилплощадка, Беломорская ул., 83",55.866421200000005,49.0157963496555,Московский район,Tatarstan,Kazan,Belomorskaya Street,83,5,5,1,18.7,13.0,3.7,2.48,1,,1,1,1,1,,,3,2,7,6
https://kazan.cian.ru/sale/flat/299485659/,2024-03-19 00:25:00,3250000,1,"Татарстан респ., Казань, р-н Московский, мкр. Жилплощадка, ул. Гудованцева, 47",55.87759885,49.019776860778634,Московский район,Tatarstan,Kazan,улица Гудованцева,47,2,5,1,18.0,,,,2,1973,1,,,,,1,3,,4,4
https://kazan.cian.ru/sale/flat/294932530/,2024-03-19 00:25:00,3950000,1,"Татарстан респ., Казань, р-н Приволжский, ул. Ярышлар, 6",55.680304,49.201712790488386,Приволжский район,Tatarstan,Kazan,улица Ярышлар,6,17,20,1,23.3,,,,,2021,3,,,,2,1,,,4,2
https://kazan.cian.ru/sale/flat/299119244/,2024-03-19 00:10:00,3199000,1,"Татарстан респ., Казань, р-н Советский, ул. Аделя Кутуя, 68к1",55.7845175,49.180786791808345,Советский район,Tatarstan,Kazan,улица Аделя Кутуя,68 к1,2,5,1,18.3,,,,3,1969,1,,,,,,5,,16,13
https://kazan.cian.ru/sale/flat/297861352/,2024-03-19 00:40:00,3690000,1,"Татарстан респ., Казань, р-н Кировский, мкр. Юдино, ул. Ильича, 19/43",55.8188314,48.89983049836401,Кировский район,Tatarstan,Kazan,Революционная улица,43,9,9,1,34.1,,,,3,1982,1,,,,1,,2,,7,8
https://kazan.cian.ru/sale/flat/299215399/,2024-03-19 00:40:00,2890000,1,"Татарстан респ., Казань, р-н Ново-Савиновский, мкр. квартал 20, ул. Восстания, 24",55.8354246,49.0911892,Ново-Савиновский район,Tatarstan,Kazan,улица Восстания,24,5,5,1,18.2,13.2,,,3,1962,1,,,,,,20,2,35,29
https://kazan.cian.ru/sale/flat/295237082/,2024-03-16 10:14:00,2260000,1,"Татарстан респ., Казань, р-н Советский, мкр. Дербышки, ул. Халезова, 19",55.8640003,49.21811818201097,Советский район,Tatarstan,Kazan,улица Халезова,19,3,5,1,17.3,15.0,,2.6,3,1967,4,1,1,,,,8,,21,15
https://kazan.cian.ru/sale/flat/285715473/,2024-03-19 00:25:00,2000000,1,"Татарстан респ., Казань, р-н Авиастроительный, мкр. Караваево, ул. Дементьева, 7А",55.858928199999994,49.10134295115938,Авиастроительный район,Tatarstan,Kazan,улица Дементьева,7А,2,9,1,17.0,,,,3,1975,1,,,,1,,8,2,20,14
https://kazan.cian.ru/sale/flat/291279107/,2024-03-19 00:10:00,3600000,1,"Татарстан респ., Казань, р-н Кировский, мкр. Залесный, Актанышская ул., 3",55.8486427,48.90941205,Кировский район,Tatarstan,Kazan,Актанышская улица,3,2,2,1,30.4,18.0,,,3,1976,1,,,,,,3,2,10,8
https://kazan.cian.ru/sale/flat/299310982/,2024-03-09 13:44:00,3100000,1,"Татарстан респ., Казань, р-н Приволжский, мкр. Теплоконтроль, Актайская ул., 7А",55.74571995,49.1405565,Приволжский район,Tatarstan,Kazan,Aktayskaya Street,7А,2,5,1,17.1,17.1,,2.5,3,1968,1,2,,,,,3,,4,4
https://kazan.cian.ru/sale/flat/299076678/,2024-03-19 00:40:00,3000000,1,"Татарстан респ., Казань, р-н Ново-Савиновский, ул. Ярослава Гашека, 3",55.8389144,49.108380941902766,Ново-Савиновский район,Tatarstan,Kazan,улица Ярослава Гашека,3,3,5,1,13.2,,,,2,1968,1,,,,,,10,,21,14
https://kazan.cian.ru/sale/flat/299191117/,2024-03-18 15:43:00,2399999,1,"Татарстан респ., Казань, р-н Советский, Агрызская ул., 78",55.8346188,49.202625100000006,Советский район,Tatarstan,Kazan,Agryzskaya Street,78,3,5,1,18.0,17.5,,2.7,3,1978,1,1,,1,,,1,,3,
https://kazan.cian.ru/sale/flat/298170786/,2024-03-19 00:40:00,2950000,1,"Татарстан респ., Казань, р-н Вахитовский, мкр. Татарская слобода, ул. Мазита Гафури, 5",55.7714201,49.103949090902475,Вахитовский район,Tatarstan,Kazan,Mazita Gafuri Street,5,2,5,1,20.0,,,,3,1960,1,,,,,1,6,3,11,10
https://kazan.cian.ru/sale/flat/290796434/,2024-03-19 00:25:00,2400000,1,"Татарстан респ., Казань, р-н Ново-Савиновский, ул. Короленко, 40",55.8327158,49.1005977,Ново-Савиновский район,Tatarstan,Kazan,улица Короленко,,3,5,1,18.5,,,,3,1963,1,,,,,,16,1,30,25
https://kazan.cian.ru/sale/flat/293847374/,2024-03-19 00:40:00,3700000,1,"Татарстан респ., Казань, р-н Московский, мкр. Жилплощадка, ул. Гудованцева, 35",55.870639249999996,49.01924615,Московский район,Tatarstan,Kazan,улица Гудованцева,35,5,5,1,33.0,,,,3,1971,,,,,,1,4,1,7,7
https://kazan.cian.ru/sale/flat/295787193/,2024-03-11 11:29:00,2490000,1,"Татарстан респ., Казань, р-н Приволжский, мкр. Поповка, Техническая ул., 39б",,,,,,,,5,5,1,21.0,18.0,3.0,2.5,3,1983,1,1,1,1,,,,,,
https://kazan.cian.ru/sale/flat/297918997/,2024-03-19 00:25:00,2599000,1,"Татарстан респ., Казань, р-н Авиастроительный, мкр. Северный, Беломорская ул., 106",55.86627855,49.054514129360655,Авиастроительный район,Tatarstan,Kazan,Belomorskaya Street,106,1,5,1,26.2,,,,3,1976,1,,,,,1,5,,3,3
https://kazan.cian.ru/sale/flat/298810526/,2024-03-19 00:40:00,2749000,1,"Татарстан респ., Казань, р-н Кировский, мкр. Красная горка, Вагонная ул., 10",55.8066951,48.94751935090909,Кировский район,Tatarstan,Kazan,Вагонная улица,10,1,2,1,31.0,,,,,1960,1,,,,,1,,,5,3
https://kazan.cian.ru/sale/flat/292872160/,2024-03-12 19:00:00,2550000,1,"Татарстан респ., Казань, р-н Ново-Савиновский, мкр. квартал 11, ул. Восстания, 27",55.83453305,49.09176121581306,Ново-Савиновский район,Tatarstan,Kazan,улица Восстания,27,3,5,1,15.0,13.0,,2.7,3,1959,1,,,,,,20,2,37,32
https://kazan.cian.ru/sale/flat/297180917/,2024-03-19 00:40:00,2800000,1,"Татарстан респ., Казань, р-н Авиастроительный, мкр. Соцгород, ул. Тар Урам, 3А",55.856164050000004,49.0739502,Авиастроительный район,Tatarstan,Kazan,Tar Uram Street,3А,5,5,1,18.8,,,,2,1973,1,,,,,1,13,2,21,13
https://kazan.cian.ru/sale/flat/299019895/,2024-03-18 18:59:00,3990000,1,"Татарстан респ., Казань, р-н Кировский, мкр. Ягодная слобода, ул. Дежнева, 2к2",,,,,,,,5,5,1,17.0,,3.0,,2,1975,1,,1,,,,,,,
https://kazan.cian.ru/sale/flat/298128028/,2024-03-06 14:07:00,2850000,1,"Татарстан респ., Казань, р-н Кировский, мкр. Ягодная слобода, Базарная ул., 2",55.81237545,49.07254255,Кировский район,Tatarstan,Kazan,Bazarnaya Street,2,3,5,1,17.1,,,2.7,2,1967,1,1,1,1,,,7,,19,12
https://kazan.cian.ru/sale/flat/299033749/,2024-03-19 00:40:00,2749000,1,"Татарстан респ., Казань, р-н Московский, мкр. Жилплощадка, ул. Химиков, 35",55.87077295,49.01709805653148,Московский район,Tatarstan,Kazan,улица Химиков,35,5,5,1,17.9,,,,2,1967,1,,,,,1,4,1,7,7
https://kazan.cian.ru/sale/flat/297777201/,2024-03-17 23:40:00,2690000,1,"Татарстан респ., Казань, р-н Авиастроительный, мкр. Караваево, Молодежная ул., 10А",,,,,,,,5,5,1,18.0,,,,2,1981,1,,,,,1,,,,
https://kazan.cian.ru/sale/flat/297935118/,2024-03-19 13:55:00,3300000,1,"Татарстан респ., Казань, р-н Приволжский, мкр. Теплоконтроль, Актайская ул., 7А",55.74571995,49.1405565,Приволжский район,Tatarstan,Kazan,Aktayskaya Street,7А,5,5,1,18.4,9.4,4.0,,3,1968,1,1,1,,,,3,,4,4
https://kazan.cian.ru/sale/flat/298493078/,2024-03-19 00:40:00,2650000,1,"Татарстан респ., Казань, р-н Советский, мкр. Куба, ул. Заря, 14",55.805751,49.18147068970137,Советский район,Tatarstan,Kazan,улица Заря,14,1,2,1,16.1,,,,2,1950,1,,,,,,14,10,19,15
https://kazan.cian.ru/sale/flat/297787141/,2024-03-13 13:26:00,2270000,1,"Татарстан респ., Казань, р-н Московский, мкр. Жилплощадка, ул. Химиков, 45А",,,,,,,,5,6,1,17.2,,,2.48,3,1968,4,1,1,1,,,,,,
https://kazan.cian.ru/sale/flat/293962362/,2024-03-19 00:25:00,2990000,1,"Татарстан респ., Казань, р-н Приволжский, мкр. Горки-1, ул. Рихарда Зорге, 32к1",,,,,,,,3,5,1,17.4,,,,2,1973,1,,,,,,,,,
https://kazan.cian.ru/sale/flat/295298888/,2024-03-19 00:10:00,2600000,1,"Татарстан респ., Казань, р-н Советский, Агрызская ул., 78",55.8346188,49.202625100000006,Советский район,Tatarstan,Kazan,Agryzskaya Street,78,4,5,1,18.0,,,,2,1978,1,,,,,1,1,,3,
https://kazan.cian.ru/sale/flat/299119239/,2024-03-19 00:10:00,2500000,1,"Татарстан респ., Казань, р-н Приволжский, мкр. Теплоконтроль, Актайская ул., 7А",55.74571995,49.1405565,Приволжский район,Tatarstan,Kazan,Aktayskaya Street,7А,2,5,1,18.0,,,,3,1968,1,,,,,1,3,,4,4
https://kazan.cian.ru/sale/flat/297750133/,2024-02-25 12:28:00,2520000,1,"Татарстан респ., Казань, р-н Приволжский, мкр. Теплоконтроль, Актайская ул., 7А",55.74571995,49.1405565,Приволжский район,Tatarstan,Kazan,Aktayskaya Street,7А,5,5,1,17.9,11.5,,2.5,3,1968,1,2,1,,,,3,,4,4
https://kazan.cian.ru/sale/flat/298282418/,2024-03-19 00:40:00,4000000,1,"Татарстан респ., Казань, р-н Приволжский, мкр. Горки-1, ул. Рихарда Зорге, 32к2",,,,,,,,3,5,1,12.6,,,,3,1973,1,,,,,1,,,,
https://kazan.cian.ru/sale/flat/299259627/,2024-03-17 20:17:00,5800000,1,"Татарстан респ., Казань, р-н Приволжский, мкр. Горки-1, ул. Хусаина Мавлютова, 9",55.7555712,49.1896071,Приволжский район,Tatarstan,Kazan,Khusaina Mavlyutova Street,9,5,9,1,30.2,14.4,6.5,2.75,2,1986,4,1,1,1,1,1,8,2,31,19
https://kazan.cian.ru/sale/flat/298728034/,2024-03-19 14:15:00,4270000,1,"Татарстан респ., Казань, ул. Солидарности, 21",55.85989455,49.231115140901856,Советский район,Tatarstan,Kazan,улица Солидарности,21,6,9,1,31.1,24.1,4.0,2.6,2,1979,4,2,1,,1,,7,,18,11
https://kazan.cian.ru/sale/flat/296501030/,2024-03-19 10:26:00,4690000,1,"Татарстан респ., Казань, р-н Советский, ул. Красной Позиции, 35",55.78113415,49.16649497218495,Советский район,Tatarstan,Kazan,Krasnoy Pozitsii Street,35,3,5,1,31.0,,7.0,,3,1966,1,2,1,1,,,7,3,18,11
https://kazan.cian.ru/sale/flat/298980321/,2024-03-19 14:15:00,4600000,1,"Татарстан респ., Казань, р-н Советский, мкр. кварталы 29,30, Ново-Азинская ул., 35",55.8119009,49.1962816,Советский район,Tatarstan,Kazan,Ново-Азинская улица,35,4,5,1,30.7,18.0,5.8,2.5,3,1966,1,1,1,,,,10,2,18,14
https://kazan.cian.ru/sale/flat/297835200/,2024-03-19 14:15:00,6000000,1,"Татарстан респ., Казань, р-н Приволжский, мкр. Горки-1, ул. Рихарда Зорге, 43",55.75390695,49.20458100319066,Приволжский район,Tatarstan,Kazan,улица Рихарда Зорге,43,6,9,1,36.9,17.1,7.0,2.5,3,1974,1,2,1,,1,1,7,3,28,17
https://kazan.cian.ru/sale/flat/295789002/,2024-03-19 16:58:00,4350000,1,"Татарстан респ., Казань, р-н Ново-Савиновский, мкр. квартал 20, Октябрьская ул., 30",55.8413921,49.09169704967087,Ново-Савиновский район,Tatarstan,Kazan,Октябрьская улица,,1,2,1,30.5,,7.8,,3,1957,1,,1,,,,14,2,23,21
https://kazan.cian.ru/sale/flat/267495144/,2024-03-19 00:25:00,4500000,1,"Татарстан респ., Казань, р-н Приволжский, проезд Детский, 8",,,,,,,,7,19,1,32.43,,,,,2023,3,,,,2,1,,,,
https://kazan.cian.ru/sale/flat/273695755/,2024-03-19 00:25:00,5799000,1,"Татарстан респ., Казань, р-н Советский, ул. Анаса Тазетдинова, 4",55.8069938,49.23031,Советский район,Tatarstan,Kazan,улица Анаса Тазетдинова,4,3,6,1,34.6,,,,,2023,,,,,2,1,1,,5,6
https://kazan.cian.ru/sale/flat/297503799/,2024-03-19 11:10:00,4600000,1,"Татарстан респ., Казань, р-н Ново-Савиновский, мкр. квартал 20, ул. Воровского, 1",55.843282200000004,49.098065065449426,Ново-Савиновский район,Tatarstan,Kazan,улица Воровского,1,3,5,1,32.0,20.0,6.0,,3,1959,1,,1,,,,11,1,17,15
https://kazan.cian.ru/sale/flat/299369876/,2024-03-19 17:02:00,4600000,1,"Татарстан респ., Казань, р-н Кировский, мкр. Залесный, ул. Айрата Арсланова, 11",55.8641205,48.879314550000004,Кировский район,Tatarstan,Kazan,улица Айрата Арсланова,11,10,18,1,39.3,,10.7,,2,2016,5,1,1,,,1,2,,12,7
https://kazan.cian.ru/sale/flat/296516858/,2024-03-19 16:57:00,4700000,1,"Татарстан респ., Казань, р-н Ново-Савиновский, мкр. квартал 11, Волгоградская ул., 37",55.8308107,49.0952782718935,Ново-Савиновский район,Tatarstan,Kazan,Volgogradskaya Street,37,5,5,1,33.4,,6.0,,3,1969,4,1,1,,,1,19,3,37,30
https://kazan.cian.ru/sale/flat/298464678/,2024-03-19 17:00:00,5350000,1,"Татарстан респ., Казань, р-н Кировский, мкр. Пороховая слобода, ул. Батыршина, 40к1",55.82136275,49.064787800000005,Кировский район,Tatarstan,Kazan,улица Батыршина,40 к1,4,5,1,31.0,,7.0,,3,1971,,1,1,,,1,11,1,35,23
https://kazan.cian.ru/sale/flat/268029127/,2024-03-19 00:25:00,5600000,1,"Татарстан респ., Казань, р-н Приволжский, ул. Ярышлар, 4",55.680845000000005,49.20113681587391,Приволжский район,Tatarstan,Kazan,улица Ярышлар,4,17,19,1,35.4,17.0,,,3,2022,3,,,,2,1,,,4,2
https://kazan.cian.ru/sale/flat/297777179/,2024-03-19 00:10:00,6000000,1,"Татарстан респ., Казань, ул. Академика Глушко, 20",55.7850211,49.233812650000004,Советский район,Tatarstan,Kazan,улица Академика Глушко,20,4,10,1,36.8,25.0,,,,2007,4,,,,1,1,7,,32,25
https://kazan.cian.ru/sale/flat/297265899/,2024-03-15 18:27:00,5350000,1,"Татарстан респ., Казань, р-н Московский, просп. Ямашева, 4",55.8256717,49.08716515507339,Московский район,Tatarstan,Kazan,проспект Ямашева,4,2,5,1,35.0,18.0,6.0,,3,1964,4,2,1,,,1,17,2,43,31
https://kazan.cian.ru/sale/flat/296346414/,2024-03-19 09:40:00,5750000,1,"Татарстан респ., Казань, ул. Лукина, 45",55.869251899999995,49.092185654607285,Авиастроительный район,Tatarstan,Kazan,улица Лукина,45,9,9,1,40.0,21.0,10.0,,2,1988,1,1,1,,1,1,9,2,31,17
https://kazan.cian.ru/sale/flat/282800731/,2024-03-16 18:57:00,4300000,1,"Татарстан респ., Казань, р-н Приволжский, проезд Детский, 8",,,,,,,,6,19,1,32.0,16.0,5.1,2.8,,2023,3,,,,,1,,,,
https://kazan.cian.ru/sale/flat/294966897/,2024-03-19 16:10:00,4200000,1,"Татарстан респ., Казань, р-н Авиастроительный, мкр. Свердлова, Северополюсная ул., 30",55.871490050000006,49.078586647395895,Авиастроительный район,Tatarstan,Kazan,Северополюсная улица,30,3,9,1,34.0,17.1,7.5,,,1987,4,1,1,,1,1,10,2,23,15
https://kazan.cian.ru/sale/flat/292117266/,2024-03-19 11:32:00,5900000,1,"Татарстан респ., Казань, р-н Советский, ул. Фикрята Табеева, 5",55.792418600000005,49.25459659296819,Советский район,Tatarstan,Kazan,улица Фикрята Табеева,5,6,10,1,33.1,18.0,10.0,0.0,,2017,1,,,,,1,2,,8,5
https://kazan.cian.ru/sale/flat/295282296/,2024-03-19 15:46:00,4300000,1,"Татарстан респ., Казань, р-н Кировский, Боевая ул., 145а",,,,,,,,5,9,1,32.6,18.0,6.1,0.0,,1972,1,,,,,1,,,,
https://kazan.cian.ru/sale/flat/299369095/,2024-03-18 13:20:00,5000000,1,"Татарстан респ., Казань, р-н Советский, мкр. Куба, ул. Дружбы, 6",55.808352049999996,49.18000234836599,Советский район,Tatarstan,Kazan,улица Дружбы,6,1,5,1,39.9,24.7,7.0,,3,1961,1,1,1,,,,11,12,11,14
https://kazan.cian.ru/sale/flat/297343768/,2024-03-19 10:55:00,5450000,1,"Татарстан респ., Казань, р-н Ново-Савиновский, мкр. квартал 20, ул. Восстания, 8",55.8360194,49.09861565,Ново-Савиновский район,Tatarstan,Kazan,улица Восстания,8,3,5,1,32.0,17.0,5.0,,2,1963,1,2,1,,,1,16,1,27,23
https://kazan.cian.ru/sale/flat/296646763/,2024-03-16 19:05:00,5300000,1,"Татарстан респ., Казань, р-н Приволжский, мкр. Горки-1, ул. Рихарда Зорге, 50",55.75371294999999,49.20086492726999,Приволжский район,Tatarstan,Kazan,улица Рихарда Зорге,50,1,9,1,30.0,17.0,7.0,0.0,,1973,5,,,,,,8,3,32,19
https://kazan.cian.ru/sale/flat/297298874/,2024-03-16 20:17:00,5290000,1,"Татарстан респ., Казань, р-н Московский, ул. Восход, 3а",55.827067,49.068830366019924,Московский район,Tatarstan,Kazan,улица Восход,3А,4,5,1,31.4,18.5,5.5,0.0,,1972,4,,,,,1,19,5,41,31
https://kazan.cian.ru/sale/flat/295209211/,2024-03-18 23:21:00,5200000,1,"Татарстан респ., Казань, р-н Приволжский, мкр. Солнечный, тракт Оренбургский, 138Б",,,,,,,,4,10,1,30.1,,,,3,1996,1,,,,2,1,,,,
https://kazan.cian.ru/sale/flat/298110751/,2024-03-18 20:10:00,5750000,1,"Татарстан респ., Казань, р-н Вахитовский, мкр. Суконная слобода, ул. Нурсултана Назарбаева, 74",55.770808,49.133212020677206,Вахитовский район,Tatarstan,Kazan,Nursultan Nazarbayev Street,74,1,5,1,32.0,19.1,,2.6,2,1966,1,,,,,,7,2,21,13
https://kazan.cian.ru/sale/flat/296519685/,2024-03-18 18:16:00,5740000,1,"Татарстан респ., Казань, р-н Вахитовский, ул. Чехова, 9",55.89590815,49.135842050580564,Авиастроительный район,Tatarstan,Kazan,Chekhova Street,9,4,9,1,25.0,14.0,4.0,,2,1979,1,2,1,,1,,1,1,1,1
https://kazan.cian.ru/sale/flat/298681504/,2024-03-18 17:12:00,5700000,1,"Татарстан респ., Казань, р-н Приволжский, мкр. 7,8, ул. Сафиуллина, 6к2",,,,,,,,4,9,1,38.0,19.0,6.6,,3,1980,4,1,1,,1,1,,,,
https://kazan.cian.ru/sale/flat/295282296/,2024-03-19 15:46:00,4300000,1,"Татарстан респ., Казань, р-н Кировский, Боевая ул., 145а",,,,,,,,5,9,1,32.6,18.0,6.1,0.0,,1972,1,,,,,1,,,,
https://kazan.cian.ru/sale/flat/298572549/,2024-03-17 18:41:00,4300000,1,"Татарстан респ., Казань, р-н Московский, ул. Батыршина, 27",55.82312365,49.06081067856145,Московский район,Tatarstan,Kazan,улица Батыршина,27,6,9,1,34.6,18.4,11.2,,3,1979,1,2,1,,1,,13,1,36,25
https://kazan.cian.ru/sale/flat/297343768/,2024-03-19 10:55:00,5450000,1,"Татарстан респ., Казань, р-н Ново-Савиновский, мкр. квартал 20, ул. Восстания, 8",55.8360194,49.09861565,Ново-Савиновский район,Tatarstan,Kazan,улица Восстания,8,3,5,1,32.0,17.0,5.0,,2,1963,1,2,1,,,1,16,1,27,23
https://kazan.cian.ru/sale/flat/296646763/,2024-03-16 19:05:00,5300000,1,"Татарстан респ., Казань, р-н Приволжский, мкр. Горки-1, ул. Рихарда Зорге, 50",55.75371294999999,49.20086492726999,Приволжский район,Tatarstan,Kazan,улица Рихарда Зорге,50,1,9,1,30.0,17.0,7.0,0.0,,1973,5,,,,,,8,3,32,19
https://kazan.cian.ru/sale/flat/298758924/,2024-03-19 00:10:00,5600000,1,"Татарстан респ., Казань, р-н Советский, ул. Фикрята Табеева, 5",55.792418600000005,49.25459659296819,Советский район,Tatarstan,Kazan,улица Фикрята Табеева,5,8,10,1,33.2,,,,3,2017,1,,,,,1,2,,8,5
https://kazan.cian.ru/sale/flat/299369095/,2024-03-18 13:20:00,5000000,1,"Татарстан респ., Казань, р-н Советский, мкр. Куба, ул. Дружбы, 6",55.808352049999996,49.18000234836599,Советский район,Tatarstan,Kazan,улица Дружбы,6,1,5,1,39.9,24.7,7.0,,3,1961,1,1,1,,,,11,12,11,14
https://kazan.cian.ru/sale/flat/297298874/,2024-03-16 20:17:00,5290000,1,"Татарстан респ., Казань, р-н Московский, ул. Восход, 3а",55.827067,49.068830366019924,Московский район,Tatarstan,Kazan,улица Восход,3А,4,5,1,31.4,18.5,5.5,0.0,,1972,4,,,,,1,19,5,41,31
https://kazan.cian.ru/sale/flat/298245596/,2024-03-19 13:40:00,5900000,1,"Татарстан респ., Казань, р-н Московский, ул. Кулахметова, 21",55.828329499999995,49.057470305008565,Московский район,Tatarstan,Kazan,улица Кулахметова,21,9,14,1,39.6,20.0,8.5,,3,1981,1,2,1,,2,1,14,6,30,21
https://kazan.cian.ru/sale/flat/295209211/,2024-03-18 23:21:00,5200000,1,"Татарстан респ., Казань, р-н Приволжский, мкр. Солнечный, тракт Оренбургский, 138Б",,,,,,,,4,10,1,30.1,,,,3,1996,1,,,,2,1,,,,
https://kazan.cian.ru/sale/flat/298110751/,2024-03-18 20:10:00,5750000,1,"Татарстан респ., Казань, р-н Вахитовский, мкр. Суконная слобода, ул. Нурсултана Назарбаева, 74",55.770808,49.133212020677206,Вахитовский район,Tatarstan,Kazan,Nursultan Nazarbayev Street,74,1,5,1,32.0,19.1,,2.6,2,1966,1,,,,,,7,2,21,13
https://kazan.cian.ru/sale/flat/299730050/,2024-03-19 16:00:00,4600000,1,"Татарстан респ., Казань, р-н Советский, мкр. кварталы 29,30, ул. Сибирский Тракт, 18",55.8275333,49.1896507,Советский район,Tatarstan,Kazan,Siberian highway,,2,5,1,31.4,,,2.7,3,1963,1,1,1,1,,,2,,2,
https://kazan.cian.ru/sale/flat/296519685/,2024-03-18 18:16:00,5740000,1,"Татарстан респ., Казань, р-н Вахитовский, ул. Чехова, 9",55.89590815,49.135842050580564,Авиастроительный район,Tatarstan,Kazan,Chekhova Street,9,4,9,1,25.0,14.0,4.0,,2,1979,1,2,1,,1,,1,1,1,1
https://kazan.cian.ru/sale/flat/299322395/,2024-03-18 19:55:00,5450000,1,"Татарстан респ., Казань, р-н Вахитовский, мкр. Калуга, Хороводная ул., 39А",,,,,,,,4,5,1,34.4,18.1,7.4,2.6,,1974,1,,,,,1,,,,
https://kazan.cian.ru/sale/flat/297053321/,2024-03-19 00:40:00,5300000,1,"Татарстан респ., Казань, р-н Советский, мкр. Азино-1, просп. Победы, 182",55.791647100000006,49.22119562277082,Советский район,Tatarstan,Kazan,проспект Победы,182,7,19,1,37.2,,,,,2004,4,,,,2,1,5,,24,16
https://kazan.cian.ru/sale/flat/298272754/,2024-03-17 19:11:00,4950000,1,"Татарстан респ., Казань, р-н Авиастроительный, мкр. Соцгород, Тэцевская ул., 4Д",55.850623999999996,49.0614005023953,Авиастроительный район,Tatarstan,Kazan,Тэцевская улица,4Д,8,8,1,30.0,13.0,8.0,2.6,2,2020,1,,1,,1,,2,1,6,6
https://kazan.cian.ru/sale/flat/299013101/,2024-03-19 12:55:00,5800000,1,"Татарстан респ., Казань, р-н Приволжский, мкр. 7,8, ул. Сафиуллина, 24",55.749260050000004,49.22002073171388,Приволжский район,Tatarstan,Kazan,улица Сафиуллина,24,9,9,1,38.5,17.1,6.8,,2,1976,4,1,1,1,,1,13,2,39,20
https://kazan.cian.ru/sale/flat/294523733/,2024-03-19 00:25:00,5499000,1,"Татарстан респ., Казань, р-н Ново-Савиновский, ул. Голубятникова, 16",55.837479200000004,49.11174839146747,Ново-Савиновский район,Tatarstan,Kazan,улица Голубятникова,16,7,9,1,38.0,13.0,,,1,1989,1,,,,1,1,11,,18,16
https://kazan.cian.ru/sale/flat/299718936/,2024-03-18 12:36:00,5600000,1,"Татарстан респ., Казань, р-н Кировский, мкр. Адмиралтейская слобода, ул. Большая, 108",55.8762423,49.06386287612801,Авиастроительный район,Tatarstan,Kazan,Большая Армавирская улица,108,1,9,1,43.3,18.5,10.8,2.6,3,2012,1,2,1,1,1,1,3,,5,4
https://kazan.cian.ru/sale/flat/299321987/,2024-03-19 16:29:00,4600000,1,"Татарстан респ., Казань, р-н Авиастроительный, мкр. Караваево, ул. Годовикова, 15",55.85950545,49.0961408,Авиастроительный район,Tatarstan,Kazan,улица Годовикова,15,4,9,1,34.75,16.9,8.0,,3,1980,4,1,1,,1,1,13,2,29,19
https://kazan.cian.ru/sale/flat/299626976/,2024-03-15 09:15:00,4500000,1,"Татарстан респ., Казань, р-н Кировский, мкр. Адмиралтейская слобода, ул. Речная, 13",55.80420905,49.06740659296082,Кировский район,Tatarstan,Kazan,Речная улица,13,2,4,1,32.0,19.0,6.0,2.75,3,,,1,1,1,,1,3,,8,9
https://kazan.cian.ru/sale/flat/299770009/,2024-03-19 14:32:00,5750000,1,"Татарстан респ., Казань, р-н Советский, ул. Красной Позиции, 45",55.777687900000004,49.17003779134491,Советский район,Tatarstan,Kazan,Krasnoy Pozitsii Street,45,5,5,1,30.5,15.0,5.0,2.7,2,1965,1,1,1,,,,4,,12,8
https://kazan.cian.ru/sale/flat/297043040/,2024-03-18 14:25:00,4840000,1,"Татарстан респ., Казань, р-н Приволжский, мкр. Горки-1, ул. Академика Парина, 10",55.74609245,49.18664017881426,Приволжский район,Tatarstan,Kazan,улица Академика Парина,10,2,5,1,31.0,14.0,8.8,2.7,3,1988,1,1,1,,1,1,8,1,24,12
https://kazan.cian.ru/sale/flat/298887787/,2024-03-19 01:10:00,4199000,1,"Татарстан респ., Казань, р-н Авиастроительный, мкр. Свердлова, Ленинградская ул., 49А",,,,,,,,2,2,1,37.6,,,,2,1959,1,,,,,,,,,
https://kazan.cian.ru/sale/flat/278393668/,2024-03-18 19:55:00,5990000,1,"Татарстан респ., Казань, р-н Приволжский, ул. Братьев Батталовых, 20к2",,,,,,,,2,25,1,36.5,16.7,11.4,2.7,,2019,3,,,,,,,,,
https://kazan.cian.ru/sale/flat/299443722/,2024-03-19 10:21:00,4700000,1,"Татарстан респ., Казань, р-н Московский, мкр. поселок Урицкого, ул. Гагарина, 48",55.71475635,49.1043692,Приволжский район,Tatarstan,Kazan,улица Гагарина,48,2,5,1,30.3,18.0,6.0,,2,1963,1,,1,,,1,1,,4,
https://kazan.cian.ru/sale/flat/287409139/,2024-12-08 12:10:00,5500000,1,"Татарстан респ., Казань, р-н Приволжский, мкр. 7,8, ул. Сафиуллина, 18",55.75041025,49.21993102866687,Приволжский район,Tatarstan,Kazan,улица Сафиуллина,18,4,9,1,35.6,,6.8,,3,1980,4,1,,,,1,12,2,38,18
https://kazan.cian.ru/sale/flat/295407394/,2024-03-18 19:40:00,4990000,1,"Татарстан респ., Казань, р-н Кировский, мкр. Ягодная слобода, Краснококшайская ул., 83",55.81399285,49.06794487563677,Кировский район,Tatarstan,Kazan,Краснококшайская улица,83,9,9,1,35.0,18.0,8.0,2.6,,1986,1,,,,,1,7,2,21,13
https://kazan.cian.ru/sale/flat/299093158/,2024-03-18 19:10:00,4500000,1,"Татарстан респ., Казань, р-н Ново-Савиновский, мкр. квартал 39, ул. Фатыха Амирхана, 53",,,,,,,,4,5,1,31.7,18.5,6.0,2.5,,1973,4,,,,,1,,,,
https://kazan.cian.ru/sale/flat/299013101/,2024-03-19 12:55:00,5800000,1,"Татарстан респ., Казань, р-н Приволжский, мкр. 7,8, ул. Сафиуллина, 24",55.749260050000004,49.22002073171388,Приволжский район,Tatarstan,Kazan,улица Сафиуллина,24,9,9,1,38.5,17.1,6.8,,2,1976,4,1,1,1,,1,13,2,39,20
https://kazan.cian.ru/sale/flat/299775186/,2024-03-19 15:56:00,4299000,1,"Татарстан респ., Казань, р-н Советский, мкр. Дербышки, Парковая ул., 7",55.8615643,49.22151,Советский район,Tatarstan,Kazan,Парковая улица,7,4,5,1,32.3,17.0,8.0,,3,1969,1,2,,,,1,8,,19,15
https://kazan.cian.ru/sale/flat/298390793/,2024-03-18 19:55:00,4300000,1,"Татарстан респ., Казань, р-н Вахитовский, мкр. Татарская слобода, ул. Татарстан, 51",55.77904185,49.10478663555135,Вахитовский район,Tatarstan,Kazan,Karim Tinchurin Street,,4,9,1,20.0,12.0,3.0,2.7,,1964,1,,,,,,5,1,13,9
https://kazan.cian.ru/sale/flat/299626976/,2024-03-15 09:15:00,4500000,1,"Татарстан респ., Казань, р-н Кировский, мкр. Адмиралтейская слобода, ул. Речная, 13",55.80420905,49.06740659296082,Кировский район,Tatarstan,Kazan,Речная улица,13,2,4,1,32.0,19.0,6.0,2.75,3,,,1,1,1,,1,3,,8,9
https://kazan.cian.ru/sale/flat/299735731/,2024-03-19 12:32:00,4300000,1,"Татарстан респ., Казань, р-н Кировский, мкр. Пороховая слобода, ул. Болотникова, 13а",,,,,,,,1,5,1,30.4,19.1,5.4,2.6,3,1968,1,1,1,,,,,,,
https://kazan.cian.ru/sale/flat/299139069/,2024-03-18 16:25:00,4300000,1,"Татарстан респ., Казань, р-н Кировский, ул. Виктора Сажинова, 6/9",55.866616,48.875749,Кировский район,Tatarstan,Kazan,улица Виктора Сажинова,6/9,16,18,1,39.8,18.0,12.0,,3,2018,,1,1,,2,1,1,,11,5
https://kazan.cian.ru/sale/flat/299718936/,2024-03-18 12:36:00,5600000,1,"Татарстан респ., Казань, р-н Кировский, мкр. Адмиралтейская слобода, ул. Большая, 108",55.8762423,49.06386287612801,Авиастроительный район,Tatarstan,Kazan,Большая Армавирская улица,108,1,9,1,43.3,18.5,10.8,2.6,3,2012,1,2,1,1,1,1,3,,5,4
https://kazan.cian.ru/sale/flat/297411351/,2024-03-18 17:50:00,4340000,1,"Татарстан респ., Казань, р-н Советский, Агрызская ул., 78",55.8346188,49.202625100000006,Советский район,Tatarstan,Kazan,Agryzskaya Street,78,2,5,1,42.0,29.0,8.0,2.6,1,1978,1,2,1,1,,,1,,3,
https://kazan.cian.ru/sale/flat/272707818/,2024-03-18 19:55:00,4300000,1,"Татарстан респ., Казань, р-н Ново-Савиновский, ул. Четаева, 43",55.8238205,49.11473817506053,Ново-Савиновский район,Tatarstan,Kazan,улица Четаева,43,1,10,1,20.0,11.0,4.0,0.0,,1998,4,,,,,1,14,,37,20
https://kazan.cian.ru/sale/flat/298887787/,2024-03-19 01:10:00,4199000,1,"Татарстан респ., Казань, р-н Авиастроительный, мкр. Свердлова, Ленинградская ул., 49А",,,,,,,,2,2,1,37.6,,,,2,1959,1,,,,,,,,,
https://kazan.cian.ru/sale/flat/295040410/,2024-03-18 20:10:00,4300000,1,"Татарстан респ., Казань, р-н Кировский, ул. Виктора Сажинова, 7/11",55.8632562,48.8769831,Кировский район,Tatarstan,Kazan,улица Виктора Сажинова,,16,19,1,41.4,18.3,11.8,0.0,,2018,5,,,,,1,2,,10,6
https://kazan.cian.ru/sale/flat/299134751/,2024-03-18 19:55:00,4300000,1,"Татарстан респ., Казань, р-н Советский, мкр. Дербышки, Парковая ул., 7",55.8615643,49.22151,Советский район,Tatarstan,Kazan,Парковая улица,7,4,5,1,33.2,18.0,5.0,0.0,,1969,1,,,,,1,8,,19,15
https://kazan.cian.ru/sale/flat/287409139/,2024-12-08 12:10:00,5500000,1,"Татарстан респ., Казань, р-н Приволжский, мкр. 7,8, ул. Сафиуллина, 18",55.75041025,49.21993102866687,Приволжский район,Tatarstan,Kazan,улица Сафиуллина,18,4,9,1,35.6,,6.8,,3,1980,4,1,,,,1,12,2,38,18
https://kazan.cian.ru/sale/flat/298844431/,2024-03-18 19:55:00,4300000,1,"Татарстан респ., Казань, р-н Авиастроительный, мкр. Северный, ул. Айдарова, 114",55.8703891,49.053324130291344,Авиастроительный район,Tatarstan,Kazan,улица Айдарова,114,2,5,1,30.2,17.0,6.2,2.7,,1972,1,,,,,1,4,,7,4
https://kazan.cian.ru/sale/flat/299709855/,2024-03-19 17:03:00,4300000,1,"Татарстан респ., Казань, р-н Советский, мкр. Дербышки, Парковая ул., 7",55.8615643,49.22151,Советский район,Tatarstan,Kazan,Парковая улица,7,4,5,1,31.5,,3.0,,3,1969,1,2,1,,,1,8,,19,15
https://kazan.cian.ru/sale/flat/299321987/,2024-03-19 16:29:00,4600000,1,"Татарстан респ., Казань, р-н Авиастроительный, мкр. Караваево, ул. Годовикова, 15",55.85950545,49.0961408,Авиастроительный район,Tatarstan,Kazan,улица Годовикова,15,4,9,1,34.75,16.9,8.0,,3,1980,4,1,1,,1,1,13,2,29,19
https://kazan.cian.ru/sale/flat/294718970/,2024-03-19 10:51:00,4399999,1,"Татарстан респ., Казань, р-н Советский, мкр. Дербышки, ул. Халезова, 12а",,,,,,,,1,9,1,39.0,19.0,9.0,,,1988,4,1,1,1,1,1,,,,
https://kazan.cian.ru/sale/flat/297064512/,2024-03-18 11:10:00,4400000,1,"Татарстан респ., Казань, р-н Советский, мкр. Дербышки, ул. Советская, 5А",,,,,,,,5,5,1,35.0,19.9,6.5,2.7,,1974,1,2,,,,1,,,,
https://kazan.cian.ru/sale/flat/292378394/,2024-03-18 23:10:00,4470000,1,"Татарстан респ., Казань, р-н Авиастроительный, мкр. Свердлова, ул. Чапаева, 44",55.870086799999996,49.084910070865604,Авиастроительный район,Tatarstan,Kazan,улица Чапаева,44,8,9,1,40.0,,,,2,1980,4,,,,1,1,9,2,30,17
https://kazan.cian.ru/sale/flat/299047236/,2024-03-18 09:55:00,4449999,1,"Татарстан респ., Казань, р-н Кировский, мкр. Залесный, просп. Ильгама Шакирова, 15/6",55.85835885,48.90270717472093,Кировский район,Tatarstan,Kazan,проспект Ильгама Шакирова,15/6,9,19,1,42.0,19.0,12.0,,,2021,1,1,1,,,1,2,,17,7
https://kazan.cian.ru/sale/flat/292798650/,2024-02-27 13:55:00,4400000,1,"Татарстан респ., Казань, р-н Кировский, мкр. Залесный, ул. Гавриила Державина",55.8442453,48.9122323,Кировский район,Tatarstan,Kazan,улица Гавриила Державина,,22,25,1,30.0,,,,2,,3,,,,,1,1,2,5,4
https://kazan.cian.ru/sale/flat/299770009/,2024-03-19 14:32:00,5750000,1,"Татарстан респ., Казань, р-н Советский, ул. Красной Позиции, 45",55.777687900000004,49.17003779134491,Советский район,Tatarstan,Kazan,Krasnoy Pozitsii Street,45,5,5,1,30.5,15.0,5.0,2.7,2,1965,1,1,1,,,,4,,12,8
https://kazan.cian.ru/sale/flat/299245146/,2024-03-04 16:31:00,4400000,1,"Татарстан респ., Казань, ул. Красной Позиции, 7",55.7905696,49.1668448582719,Советский район,Tatarstan,Kazan,Krasnoy Pozitsii Street,7,1,5,1,29.7,16.2,6.2,,3,1966,4,1,1,1,,,6,6,23,11
https://kazan.cian.ru/sale/flat/297862143/,2024-03-18 17:36:00,4400000,1,"Татарстан респ., Казань, р-н Приволжский, ул. Ярышлар, 4",55.680845000000005,49.20113681587391,Приволжский район,Tatarstan,Kazan,улица Ярышлар,4,10,19,1,31.0,16.0,5.0,,,2022,3,1,1,,1,1,,,4,2
https://kazan.cian.ru/sale/flat/298409469/,2024-03-18 18:25:00,5800000,1,"Татарстан респ., Казань, р-н Приволжский, мкр. Горки-3, ул. Юлиуса Фучика, 83",55.7433381,49.20960080550886,Приволжский район,Tatarstan,Kazan,улица Юлиуса Фучика,83,2,9,1,37.0,18.0,9.0,,,1987,4,,,,,,11,2,36,16
https://kazan.cian.ru/sale/flat/292510467/,2024-03-18 20:10:00,4400000,1,"Татарстан респ., Казань, р-н Кировский, мкр. Пороховая слобода, Горьковское ш., 14",55.8262115,49.038341723916844,Кировский район,Tatarstan,Kazan,Горьковское шоссе,14,1,5,1,31.5,18.0,6.0,0.0,,1962,1,,,,,,4,3,16,9
https://kazan.cian.ru/sale/flat/297446667/,2024-03-18 19:55:00,4400000,1,"Татарстан респ., Казань, р-н Советский, мкр. Дербышки, Парковая ул., 11",55.8608114,49.22212252753005,Советский район,Tatarstan,Kazan,Парковая улица,11,5,5,1,30.3,17.0,6.2,0.0,,1968,1,,,,,,7,,19,15
https://kazan.cian.ru/sale/flat/297742241/,2024-03-18 12:52:00,5460000,1,"Татарстан респ., Казань, р-н Советский, мкр. Азино-1, ул. Дуслык, 6",55.8360919,49.099518,Ново-Савиновский район,Tatarstan,Kazan,улица Восстания,,3,6,1,35.8,18.9,9.2,2.6,3,2003,4,2,1,1,1,2,15,1,25,23
https://kazan.cian.ru/sale/flat/299709855/,2024-03-19 17:03:00,4300000,1,"Татарстан респ., Казань, р-н Советский, мкр. Дербышки, Парковая ул., 7",55.8615643,49.22151,Советский район,Tatarstan,Kazan,Парковая улица,7,4,5,1,31.5,,3.0,,3,1969,1,2,1,,,1,8,,19,15
https://kazan.cian.ru/sale/flat/294867955/,2024-03-19 12:10:00,4700000,1,"Татарстан респ., Казань, р-н Кировский, мкр. Залесный, ул. Наиля Юсупова, 9",55.854442250000005,48.89951641284767,Кировский район,Tatarstan,Kazan,улица Наиля Юсупова,9,17,19,1,40.0,17.3,11.0,2.75,2,2018,,,1,1,2,1,3,2,19,6
https://kazan.cian.ru/sale/flat/299090425/,2024-03-14 09:22:00,4500000,1,"Татарстан респ., Казань, р-н Кировский, мкр. Юдино, Революционная ул., 41",55.818369700000005,48.89667985,Кировский район,Tatarstan,Kazan,Революционная улица,41,11,14,1,36.0,18.0,8.5,2.7,2,1984,1,1,1,,2,1,3,,7,8
https://kazan.cian.ru/sale/flat/299467203/,2024-03-18 10:08:00,5400000,1,"Татарстан респ., Казань, р-н Вахитовский, мкр. Аметьево, Магаданская ул., 18",55.7682712,49.16438984782738,Вахитовский район,Tatarstan,Kazan,Magadanskaya Street,18А,3,9,1,29.4,18.4,6.0,,2,1979,1,1,1,,1,1,7,1,24,12
https://kazan.cian.ru/sale/flat/298823427/,2024-03-18 11:25:00,5799999,1,"Татарстан респ., Казань, р-н Приволжский, мкр. Горки-3, просп. Победы, 42",55.7450388,49.20494849841681,Приволжский район,Tatarstan,Kazan,Pobedy Avenue,42,9,9,1,35.7,18.5,9.0,2.64,3,1988,5,2,1,,1,1,10,1,32,16
https://kazan.cian.ru/sale/flat/299168469/,2024-03-18 19:08:00,4700000,1,"Татарстан респ., Казань, р-н Ново-Савиновский, ул. Гагарина, 53",55.71348865,49.104005900000004,Приволжский район,Tatarstan,Kazan,улица Гагарина,53,3,5,1,32.0,18.0,6.0,,,1965,1,1,1,,,1,1,,3,
https://kazan.cian.ru/sale/flat/294754222/,2024-03-06 16:54:00,5500000,1,"Татарстан респ., Казань, р-н Советский, мкр. Дербышки, Стадионная ул., 1",55.8702749,49.23151522999739,Советский район,Tatarstan,Kazan,Стадионная улица,1,14,23,1,38.0,16.0,10.0,2.75,,,,2,1,2,2,1,8,,18,9
https://kazan.cian.ru/sale/flat/299738501/,2024-03-18 18:27:00,4760000,1,"Татарстан респ., Казань, р-н Приволжский, мкр. Теплоконтроль, 33-й Военный городок, 2",55.7337392,49.1730658,Приволжский район,Tatarstan,Kazan,улица Мидхата Булатова,,3,5,1,33.7,17.1,6.5,2.5,,1981,3,,,,,,2,4,10,8
https://kazan.cian.ru/sale/flat/299207914/,2024-03-14 13:44:00,4350000,1,"Татарстан респ., Казань, р-н Кировский, ул. Зилантовская, 22/15",,,,,,,,2,18,1,36.0,18.4,9.1,2.7,3,2017,3,2,1,1,2,1,,,,
https://kazan.cian.ru/sale/flat/296321095/,2024-03-18 19:40:00,5490000,1,"Татарстан респ., Казань, р-н Ново-Савиновский, мкр. кварталы 25, МЖК, ул. Фатыха Амирхана, 20А",,,,,,,,8,9,1,35.9,20.0,8.0,2.7,,1988,1,,,,,,,,,
https://kazan.cian.ru/sale/flat/299083876/,2024-03-01 06:28:00,5499000,1,"Татарстан респ., Казань, р-н Ново-Савиновский, мкр. квартал 39, ул. Фатыха Амирхана, 37",,,,,,,,5,9,1,35.5,18.0,7.5,2.7,3,1975,4,2,1,1,1,1,,,,
https://kazan.cian.ru/sale/flat/294343307/,2024-03-18 19:13:00,4250000,1,"Татарстан респ., Казань, р-н Кировский, мкр. Залесный, ул. Гавриила Державина, 4к1",,,,,,,,24,25,1,35.5,14.0,11.5,,,2022,,2,1,,3,1,,,,
https://kazan.cian.ru/sale/flat/285862764/,2024-03-19 16:25:00,5600000,1,"Татарстан респ., Казань, р-н Приволжский, Южно-Промышленная ул.",55.7284004,49.0984714,Приволжский район,Tatarstan,Kazan,Южно-Промышленная улица,,7,18,1,38.6,12.2,18.8,2.6,,,,2,1,,1,,,,3,1
https://kazan.cian.ru/sale/flat/299110682/,2024-02-29 18:08:00,5000000,1,"Татарстан респ., Казань, р-н Приволжский, ул. Ярышлар, 4",55.680845000000005,49.20113681587391,Приволжский район,Tatarstan,Kazan,улица Ярышлар,4,7,19,1,36.0,16.2,9.0,2.7,3,2022,3,1,1,1,2,1,,,4,2
https://kazan.cian.ru/sale/flat/298580766/,2024-03-17 23:55:00,4950000,1,"Татарстан респ., Казань, р-н Приволжский, мкр. Горки-1, ул. Хусаина Мавлютова, 8/20",55.7502703,49.189453,Приволжский район,Tatarstan,Kazan,Khusaina Mavlyutova Street,,3,9,1,32.2,18.1,,,3,1979,4,,,,2,1,8,2,28,14
https://kazan.cian.ru/sale/flat/299220925/,2024-03-19 10:56:00,5590000,1,"Татарстан респ., Казань, р-н Московский, мкр. поселок Урицкого, ул. Восстания, 82Б",,,,,,,,9,24,1,29.9,15.0,4.7,2.8,3,2017,5,2,1,,3,1,,,,
https://kazan.cian.ru/sale/flat/299738503/,2024-03-19 04:52:00,5750000,1,"Татарстан респ., Казань, р-н Вахитовский, мкр. Суконная слобода, ул. Нурсултана Назарбаева, 74",55.770808,49.133212020677206,Вахитовский район,Tatarstan,Kazan,Nursultan Nazarbayev Street,74,1,5,1,32.0,19.1,5.4,0.0,,1966,1,,,,,,7,2,21,13
https://kazan.cian.ru/sale/flat/298580809/,2024-03-18 23:10:00,4450000,1,"Татарстан респ., Казань, р-н Авиастроительный, мкр. Караваево, ул. Академика Павлова, 19",55.8644924,49.09756456772083,Авиастроительный район,Tatarstan,Kazan,улица Академика Павлова,19,9,9,1,41.9,,,,2,1984,1,,,,1,1,10,2,30,19
https://kazan.cian.ru/sale/flat/299443722/,2024-03-19 10:21:00,4700000,1,"Татарстан респ., Казань, р-н Московский, мкр. поселок Урицкого, ул. Гагарина, 48",55.71475635,49.1043692,Приволжский район,Tatarstan,Kazan,улица Гагарина,48,2,5,1,30.3,18.0,6.0,,2,1963,1,,1,,,1,1,,4,
https://kazan.cian.ru/sale/flat/299145963/,2024-03-19 12:15:00,4700000,1,"Татарстан респ., Казань, ул. Сеченова, 3",55.7972131,49.174823625323405,Советский район,Tatarstan,Kazan,улица Сеченова,3,3,4,1,40.0,25.0,10.0,,,1960,1,,,,,,7,6,14,16
https://kazan.cian.ru/sale/flat/292594014/,2024-03-19 00:40:00,4480000,1,"Татарстан респ., Казань, р-н Ново-Савиновский, мкр. квартал 20, Октябрьская ул., 15а",,,,,,,,1,5,1,30.9,,,,3,1960,1,,,,,1,,,,
https://kazan.cian.ru/sale/flat/299738501/,2024-03-18 18:27:00,4760000,1,"Татарстан респ., Казань, р-н Приволжский, мкр. Теплоконтроль, 33-й Военный городок, 2",55.7337392,49.1730658,Приволжский район,Tatarstan,Kazan,улица Мидхата Булатова,,3,5,1,33.7,17.1,6.5,2.5,,1981,3,,,,,,2,4,10,8
https://kazan.cian.ru/sale/flat/299269636/,2024-03-11 15:33:00,4750000,1,"Татарстан респ., Казань, р-н Кировский, мкр. Ягодная слобода, Шоссейная ул., 22",55.807703950000004,49.08169867569593,Кировский район,Tatarstan,Kazan,Шоссейная улица,22,1,5,1,30.8,,,2.5,2,1971,1,1,1,1,,,2,,13,5
https://kazan.cian.ru/sale/flat/294719645/,2024-03-17 23:27:00,4500000,1,"Татарстан респ., Казань, р-н Советский, ул. Красной Позиции, 9а",55.78936665,49.16714454842351,Советский район,Tatarstan,Kazan,Krasnoy Pozitsii Street,9А,1,5,1,31.8,,,,3,1965,4,,,,,1,6,6,23,11
https://kazan.cian.ru/sale/flat/299502250/,2024-03-19 13:10:00,4750000,1,"Татарстан респ., Казань, р-н Московский, Волгоградская ул., 29",55.829886900000005,49.090645899685626,Московский район,Tatarstan,Kazan,Volgogradskaya Street,29,5,5,1,31.5,18.0,5.8,,3,1963,4,1,1,,,1,21,4,39,34
https://kazan.cian.ru/sale/flat/299363606/,2024-03-18 19:10:00,4799000,1,"Татарстан респ., Казань, р-н Авиастроительный, мкр. Соцгород, ул. Побежимова, 57",55.860387349999996,49.07391149152578,Авиастроительный район,Tatarstan,Kazan,улица Побежимова,57,4,9,1,28.6,12.9,6.8,2.7,,1985,1,,,,,1,13,2,24,18
https://kazan.cian.ru/sale/flat/292789253/,2024-03-19 09:29:00,4500000,1,"Татарстан респ., Казань, р-н Кировский, мкр. Пороховая слобода, Полевая ул., 28",55.820780850000006,49.05835992501456,Кировский район,Tatarstan,Kazan,Полевая улица,28,5,5,1,30.2,18.0,5.5,2.6,3,1965,1,1,1,1,,1,10,2,30,20
https://kazan.cian.ru/sale/flat/299224223/,2024-03-18 19:55:00,4790000,1,"Татарстан респ., Казань, р-н Приволжский, проезд Детский, 8",,,,,,,,18,19,1,30.1,20.1,5.0,0.0,,2023,3,,,,,,,,,
https://kazan.cian.ru/sale/flat/299456776/,2024-03-18 19:55:00,4750000,9,"Татарстан респ., Казань, р-н Приволжский, ул. Ярышлар, 2Б",55.680572749999996,49.19932316065801,Приволжский район,Tatarstan,Kazan,улица Ярышлар,2Б,9,19,1,32.0,19.0,8.0,0.0,,2021,3,,,,,1,,,4,2
https://kazan.cian.ru/sale/flat/297274927/,2024-03-17 23:40:00,4500000,1,"Татарстан респ., Казань, р-н Советский, мкр. Дербышки, ул. Мира, 26",55.86580429999999,49.22492447095716,Советский район,Tatarstan,Kazan,Mira Street,26,1,5,1,32.0,,,,2,1970,1,,,,,1,8,,21,16
https://kazan.cian.ru/sale/flat/297541815/,2024-03-18 11:55:00,4800000,1,"Татарстан респ., Казань, р-н Авиастроительный, мкр. Караваево, ул. Лукина, 45",55.869251899999995,49.092185654607285,Авиастроительный район,Tatarstan,Kazan,улица Лукина,45,2,9,1,33.9,15.6,6.9,,3,1988,1,1,1,,1,1,9,2,31,17
https://kazan.cian.ru/sale/flat/298363844/,2024-03-18 19:55:00,4800000,1,"Татарстан респ., Казань, р-н Авиастроительный, мкр. Свердлова, ул. Айдарова, 24",55.87001935,49.07748851554514,Авиастроительный район,Tatarstan,Kazan,улица Айдарова,24,8,9,1,29.1,18.0,5.0,0.0,,1980,1,,,,,1,11,2,26,17
https://kazan.cian.ru/sale/flat/294254786/,2024-03-18 12:29:00,4590000,1,"Татарстан респ., Казань, р-н Московский, ул. Батыршина, 25",55.8233511,49.05999518834009,Московский район,Tatarstan,Kazan,улица Батыршина,25,8,9,1,34.2,17.2,12.0,,2,1978,1,,1,,1,,14,1,36,25
https://kazan.cian.ru/sale/flat/298661651/,2024-03-18 11:02:00,4800000,1,"Татарстан респ., Казань, р-н Приволжский, мкр. Теплоконтроль, Авангардная ул., 163",55.73900515,49.145566423516726,Приволжский район,Tatarstan,Kazan,Avangardnaya Street,163,2,2,1,40.9,21.6,9.3,,3,1960,1,2,1,1,,,3,,9,4
https://kazan.cian.ru/sale/flat/297043040/,2024-03-18 14:25:00,4840000,1,"Татарстан респ., Казань, р-н Приволжский, мкр. Горки-1, ул. Академика Парина, 10",55.74609245,49.18664017881426,Приволжский район,Tatarstan,Kazan,улица Академика Парина,10,2,5,1,31.0,14.0,8.8,2.7,3,1988,1,1,1,,1,1,8,1,24,12
https://kazan.cian.ru/sale/flat/285057860/,2024-03-19 00:25:00,4599000,1,"Татарстан респ., Казань, р-н Кировский, Озеро Лебяжье территория, 10",,,,,,,,4,4,1,44.4,25.5,,,3,2001,1,,,,,1,,,,
https://kazan.cian.ru/sale/flat/297316769/,2024-03-18 17:10:00,4800000,1,"Татарстан респ., Казань, р-н Авиастроительный, мкр. Соцгород, Тэцевская ул., 23",55.84749955,49.05540055,Авиастроительный район,Tatarstan,Kazan,Тэцевская улица,23,3,4,1,36.9,18.0,5.0,,2,1985,1,2,1,,,,,,7,2
https://kazan.cian.ru/sale/flat/293116867/,2024-02-28 12:36:00,4899999,1,"Татарстан респ., Казань, р-н Авиастроительный, мкр. Караваево, ул. Максимова, 3",55.860078200000004,49.09621521250793,Авиастроительный район,Tatarstan,Kazan,улица Максимова,3,1,10,1,35.0,,,2.7,3,1984,1,,,,1,,13,2,31,20
https://kazan.cian.ru/sale/flat/298453846/,2024-03-18 19:19:00,4600000,1,"Татарстан респ., Казань, р-н Московский, Бакалейная ул., 50а",,,,,,,,4,5,1,30.0,16.1,6.5,,3,1975,1,1,1,,,1,,,,
https://kazan.cian.ru/sale/flat/298877056/,2024-03-12 10:02:00,4850000,1,"Татарстан респ., Казань, р-н Кировский, мкр. Пороховая слобода, Музыкальная ул., 4",55.8186308,49.05376130827108,Кировский район,Tatarstan,Kazan,Музыкальная улица,4,3,5,1,33.4,19.3,5.7,,3,1960,1,1,1,1,,1,8,2,28,16
https://kazan.cian.ru/sale/flat/299477865/,2024-03-18 19:55:00,4850000,1,"Татарстан респ., Казань, р-н Кировский, мкр. Пороховая слобода, ул. Чкалова, 10",55.82147345,49.0620964,Кировский район,Tatarstan,Kazan,улица Чкалова,10,4,5,1,31.8,19.0,5.5,2.6,,1971,1,,,,,1,10,1,34,22
https://kazan.cian.ru/sale/flat/298399455/,2024-03-19 00:40:00,4649000,1,"Татарстан респ., Казань, р-н Кировский, мкр. Залесный, ул. Виктора Сажинова, 3",55.86406,48.8758618,Кировский район,Tatarstan,Kazan,улица Виктора Сажинова,3,15,20,1,37.6,,,,3,2015,5,,,,2,1,1,,11,6
https://kazan.cian.ru/sale/flat/297826899/,2024-03-11 09:00:00,4900000,1,"Татарстан респ., Казань, р-н Приволжский, мкр. Теплоконтроль, Модельная ул., 10",55.7486127,49.1417786,Приволжский район,Tatarstan,Kazan,Модельная улица,10,4,8,1,36.0,21.0,7.3,2.5,3,1995,1,1,1,,1,1,3,,4,3
https://kazan.cian.ru/sale/flat/295731729/,2024-03-18 17:36:00,5030000,1,"Татарстан респ., Казань, р-н Советский, мкр. Дербышки, Стадионная ул., 1",55.8702749,49.23151522999739,Советский район,Tatarstan,Kazan,Стадионная улица,1,10,23,1,35.0,9.0,16.0,,3,,,,1,,1,1,8,,18,9
https://kazan.cian.ru/sale/flat/299358672/,2024-03-18 18:59:00,4580000,1,"Татарстан респ., Казань, р-н Кировский, мкр. Залесный, ул. Наиля Юсупова, 9",55.854442250000005,48.89951641284767,Кировский район,Tatarstan,Kazan,улица Наиля Юсупова,9,17,19,1,42.0,18.5,12.4,,1,2018,,1,1,,1,1,3,2,19,6
https://kazan.cian.ru/sale/flat/297271426/,2024-03-18 19:05:00,4230000,1,"Татарстан респ., Казань, р-н Кировский, мкр. Залесный, ул. Гавриила Державина, 4к2",,,,,,,,11,24,1,36.0,14.0,11.5,,3,2022,,2,1,,2,1,,,,
https://kazan.cian.ru/sale/flat/298877056/,2024-03-12 10:02:00,4850000,1,"Татарстан респ., Казань, р-н Кировский, мкр. Пороховая слобода, Музыкальная ул., 4",55.8186308,49.05376130827108,Кировский район,Tatarstan,Kazan,Музыкальная улица,4,3,5,1,33.4,19.3,5.7,,3,1960,1,1,1,1,,1,8,2,28,16
https://kazan.cian.ru/sale/flat/293116867/,2024-02-28 12:36:00,4899999,1,"Татарстан респ., Казань, р-н Авиастроительный, мкр. Караваево, ул. Максимова, 3",55.860078200000004,49.09621521250793,Авиастроительный район,Tatarstan,Kazan,улица Максимова,3,1,10,1,35.0,,,2.7,3,1984,1,,,,1,,13,2,31,20
https://kazan.cian.ru/sale/flat/297850235/,2024-03-18 11:40:00,5249999,1,"Татарстан респ., Казань, р-н Вахитовский, мкр. Калуга, Бойничная ул., 5",55.7796652,49.14877801266448,Вахитовский район,Tatarstan,Kazan,Boynichnaya Street,5,11,11,2,50.5,33.5,12.0,,3,2007,1,,1,,1,,11,2,22,15
https://kazan.cian.ru/sale/flat/299477865/,2024-03-18 19:55:00,4850000,1,"Татарстан респ., Казань, р-н Кировский, мкр. Пороховая слобода, ул. Чкалова, 10",55.82147345,49.0620964,Кировский район,Tatarstan,Kazan,улица Чкалова,10,4,5,1,31.8,19.0,5.5,2.6,,1971,1,,,,,1,10,1,34,22
https://kazan.cian.ru/sale/flat/297826899/,2024-03-11 09:00:00,4900000,1,"Татарстан респ., Казань, р-н Приволжский, мкр. Теплоконтроль, Модельная ул., 10",55.7486127,49.1417786,Приволжский район,Tatarstan,Kazan,Модельная улица,10,4,8,1,36.0,21.0,7.3,2.5,3,1995,1,1,1,,1,1,3,,4,3
https://kazan.cian.ru/sale/flat/298580766/,2024-03-17 23:55:00,4950000,1,"Татарстан респ., Казань, р-н Приволжский, мкр. Горки-1, ул. Хусаина Мавлютова, 8/20",55.7451733,49.1908548,Приволжский район,Tatarstan,Kazan,Khusaina Mavlyutova Street,,3,9,1,32.2,18.1,,,3,1979,4,,,,2,1,8,,28,12
https://kazan.cian.ru/sale/flat/295731729/,2024-03-18 17:36:00,5030000,1,"Татарстан респ., Казань, р-н Советский, мкр. Дербышки, Стадионная ул., 1",55.8702749,49.23151522999739,Советский район,Tatarstan,Kazan,Стадионная улица,1,10,23,1,35.0,9.0,16.0,,3,,,,1,,1,1,8,,18,9
https://kazan.cian.ru/sale/flat/298642413/,2024-03-19 12:41:00,4910000,1,"Татарстан респ., Казань, р-н Авиастроительный, мкр. Караваево, ул. Дементьева, 31А",,,,,,,,5,5,1,37.6,18.6,8.1,0.0,,1976,1,,,,,1,,,,
https://kazan.cian.ru/sale/flat/298749545/,2024-03-18 18:30:00,5790000,1,"Татарстан респ., Казань, р-н Советский, ул. Азата Аббасова, 21",55.7874306,49.25265887097612,Советский район,Tatarstan,Kazan,улица Азата Аббасова,21,9,19,1,31.0,15.0,9.0,2.6,,2022,1,,,,,1,1,,5,9
https://kazan.cian.ru/sale/flat/297680248/,2024-02-23 17:05:00,4990000,1,"Татарстан респ., Казань, р-н Советский, мкр. Азино-2, просп. Победы, 90",55.7659696,49.2206061,Советский район,Tatarstan,Kazan,Pobedy Avenue,90,9,15,1,21.9,,,2.7,3,2013,1,1,1,1,2,2,5,4,23,9
https://kazan.cian.ru/sale/flat/298988438/,2024-02-26 20:58:00,4999000,1,"Татарстан респ., Казань, р-н Московский, мкр. Жилплощадка, ул. Химиков, 39",55.872267699999995,49.01639209768199,Московский район,Tatarstan,Kazan,улица Химиков,39,3,5,1,30.0,18.4,6.0,2.5,2,1969,1,1,1,1,,,4,1,7,7
https://kazan.cian.ru/sale/flat/299342745/,2024-03-06 20:43:00,5600000,1,"Татарстан респ., Казань, р-н Советский, мкр. Азино-2, Минская ул., 40",,,,,,,,5,9,1,38.5,18.0,8.0,2.7,2,1996,4,1,1,1,1,1,,,,
https://kazan.cian.ru/sale/flat/299505968/,2024-03-18 16:10:00,4999000,1,"Татарстан респ., Казань, р-н Ново-Савиновский, мкр. квартал 20, Октябрьская ул., 50",55.79339755,49.240803971644524,Советский район,Tatarstan,Kazan,Октябрьская улица,50,5,5,1,32.0,18.0,6.0,,2,1958,1,2,1,,,1,5,,16,14
https://kazan.cian.ru/sale/flat/296707281/,2024-02-23 14:17:00,4990000,1,"Татарстан респ., Казань, р-н Приволжский, мкр. 9,10,11, ул. Юлиуса Фучика, 52",55.7521301,49.23262334934706,Приволжский район,Tatarstan,Kazan,улица Юлиуса Фучика,52,1,10,1,35.0,,,2.5,3,1982,4,,1,,1,1,11,2,29,15
https://kazan.cian.ru/sale/flat/294719645/,2024-03-17 23:27:00,4500000,1,"Татарстан респ., Казань, р-н Советский, ул. Красной Позиции, 9а",55.78936665,49.16714454842351,Советский район,Tatarstan,Kazan,Krasnoy Pozitsii Street,9А,1,5,1,31.8,,,,3,1965,4,,,,,1,6,6,23,11
https://kazan.cian.ru/sale/flat/299249802/,2024-03-13 14:46:00,4990000,1,"Татарстан респ., Казань, р-н Кировский, мкр. Пороховая слобода, Ново-Светлая ул., 11",55.82269075,49.039557575848676,Кировский район,Tatarstan,Kazan,Ново-Светлая улица,11,5,5,1,31.0,,,2.5,2,1960,1,,1,,,,5,3,15,9
https://kazan.cian.ru/sale/flat/299249844/,2024-03-12 16:09:00,4990000,1,"Татарстан респ., Казань, р-н Московский, ул. Блюхера, 85",55.82788315,49.0644834399359,Московский район,Tatarstan,Kazan,улица Блюхера,85,1,5,1,33.8,,,2.48,2,1973,4,,1,,,,17,7,40,27
https://kazan.cian.ru/sale/flat/299703333/,2024-03-18 17:37:00,5900000,1,"Татарстан респ., Казань, р-н Приволжский, мкр. Горки-3, ул. Дубравная, 31",55.7395169,49.21077278729287,Приволжский район,Tatarstan,Kazan,Dubravnaya Street,31,5,9,1,36.3,18.4,5.6,,3,1991,5,1,1,,1,1,8,,28,12
https://kazan.cian.ru/sale/flat/299110682/,2024-02-29 18:08:00,5000000,1,"Татарстан респ., Казань, р-н Приволжский, ул. Ярышлар, 4",55.680845000000005,49.20113681587391,Приволжский район,Tatarstan,Kazan,улица Ярышлар,4,7,19,1,36.0,16.2,9.0,2.7,3,2022,3,1,1,1,2,1,,,4,2
https://kazan.cian.ru/sale/flat/298517156/,2024-03-18 15:29:00,5000000,1,"Татарстан респ., Казань, р-н Советский, мкр. Дербышки, Стадионная ул., 1",55.8702749,49.23151522999739,Советский район,Tatarstan,Kazan,Стадионная улица,1,5,23,1,34.0,10.0,16.3,2.7,,,,,,,,,8,,18,9
https://kazan.cian.ru/sale/flat/299215410/,2024-03-19 00:40:00,4900000,1,"Татарстан респ., Казань, р-н Кировский, мкр. Ягодная слобода, Краснококшайская ул., 83",55.81399285,49.06794487563677,Кировский район,Tatarstan,Kazan,Краснококшайская улица,83,2,9,1,34.5,,,,3,1986,1,,,,1,1,7,2,21,13
https://kazan.cian.ru/sale/flat/299307037/,2024-03-18 19:26:00,5000000,1,"Татарстан респ., Казань, р-н Авиастроительный, мкр. Соцгород, Тэцевская ул., 4А",55.8518768,49.06480135925634,Авиастроительный район,Tatarstan,Kazan,Тэцевская улица,4А,1,12,1,25.3,11.4,7.9,2.7,,2019,5,,,,,1,4,1,10,8
https://kazan.cian.ru/sale/flat/297750053/,2024-03-18 19:55:00,5000000,1,"Татарстан респ., Казань, р-н Советский, мкр. Азино-2, ул. Юлиуса Фучика, 96",55.7687756,49.232534487862544,Советский район,Tatarstan,Kazan,улица Юлиуса Фучика,96,1,9,1,32.0,18.0,7.0,0.0,,1996,4,,,,,,9,3,30,17
