link,date,price,rooms,full_address,latitude,longitude,city_district,state,city,road,house_number,floor,total_floors,housing_type,total_area,living_area,kitchen_area,ceiling_height,repair,house_year,house_type,windows_view,bathrooms_num,parking,elevators_num,balcony_num,schools,hospitals,grocery_stores,kindergartens
https://ulyanovsk.cian.ru/sale/flat/299385903/,2024-03-19 15:25:00,2800000,1.0,"Ульяновская область, Ульяновск, р-н Засвияжский, Промышленная ул., 93",54.282487200000006,48.31505067866166,Засвияжский район,Ulyanovsk Oblast,Ulyanovsk,Промышленная улица,93,2,10,1,35.6,,8.2,,3.0,2011.0,4.0,,1.0,,2.0,1.0,10.0,2.0,16.0,9.0
https://ulyanovsk.cian.ru/sale/flat/291166456/,2024-03-18 23:11:00,2970000,1.0,"Ульяновская область, Ульяновск, р-н Засвияжский, Октябрьская ул., 38",54.3011362,48.34773541235704,Засвияжский район,Ulyanovsk Oblast,Ulyanovsk,Октябрьская улица,38,4,9,1,35.5,,8.0,,3.0,1961.0,1.0,,1.0,,1.0,1.0,8.0,1.0,10.0,7.0
https://ulyanovsk.cian.ru/sale/flat/299764302/,2024-03-19 12:47:00,3499000,1.0,"Ульяновская область, Ульяновск, р-н Заволжский, просп. Врача Сурова, 27",54.39104845,48.5840472,Zavolzhskiy,Ulyanovsk Oblast,Ulyanovsk,проспект Врача Сурова,27,2,9,1,38.0,19.0,9.0,2.65,2.0,1994.0,4.0,1.0,1.0,,1.0,1.0,4.0,1.0,12.0,8.0
https://ulyanovsk.cian.ru/sale/flat/299778615/,2024-03-19 17:05:00,2900000,1.0,"Ульяновская область, Ульяновск, р-н Засвияжский, Фруктовая ул., 6",54.27721765,48.30703701083553,Засвияжский район,Ulyanovsk Oblast,Ulyanovsk,Фруктовая улица,6,4,10,1,35.0,17.0,7.0,2.7,3.0,1993.0,4.0,1.0,1.0,1.0,1.0,1.0,9.0,1.0,28.0,14.0
https://ulyanovsk.cian.ru/sale/flat/296409250/,2024-03-18 23:25:00,3900000,1.0,"Ульяновская область, Ульяновск, р-н Засвияжский, ул. Юго-западная, 11",54.2793452,48.2631433,Засвияжский район,Ulyanovsk Oblast,Ulyanovsk,Юго-Западная улица,11,3,19,1,36.5,,14.2,,2.0,2023.0,,,1.0,,2.0,,2.0,,8.0,3.0
https://ulyanovsk.cian.ru/sale/flat/299033095/,2024-03-18 23:15:00,3800000,1.0,"Ульяновская область, Ульяновск, р-н Заволжский, просп. Генерала Тюленева, 52",54.39093915,48.577756828742125,Zavolzhskiy,Ulyanovsk Oblast,Ulyanovsk,проспект Генерала Тюленева,52,5,12,1,35.0,,9.8,,2.0,2021.0,4.0,,1.0,,2.0,1.0,4.0,1.0,12.0,8.0
https://ulyanovsk.cian.ru/sale/flat/293531959/,2024-03-19 14:17:00,2400000,1.0,"Ульяновская область, Ульяновск, р-н Засвияжский, просп. 50-летия ВЛКСМ, 2",54.3074644,48.3319795,Засвияжский район,Ulyanovsk Oblast,Ulyanovsk,проспект 50-летия ВЛКСМ,2,3,5,1,29.7,,6.0,,3.0,1963.0,1.0,,1.0,,,,10.0,1.0,15.0,9.0
https://ulyanovsk.cian.ru/sale/flat/298935218/,2024-03-19 09:55:00,3500000,1.0,"Ульяновская область, Ульяновск, р-н Засвияжский, Фруктовая ул., 1",54.27837165,48.31108258998175,Засвияжский район,Ulyanovsk Oblast,Ulyanovsk,Фруктовая улица,1,9,10,1,35.3,18.0,12.0,2.9,2.0,1987.0,4.0,2.0,1.0,1.0,1.0,1.0,9.0,2.0,21.0,8.0
https://ulyanovsk.cian.ru/sale/flat/297199820/,2024-03-19 09:57:00,2900000,1.0,"Ульяновская область, Ульяновск, р-н Засвияжский, ул. Игошина, 4А",54.2806741,48.267604688807225,Засвияжский район,Ulyanovsk Oblast,Ulyanovsk,улица Игошина,4А,3,11,1,29.7,14.0,5.0,2.7,3.0,2015.0,4.0,1.0,1.0,1.0,1.0,1.0,6.0,1.0,10.0,6.0
https://ulyanovsk.cian.ru/sale/flat/297330941/,2024-03-18 23:13:00,2200000,1.0,"Ульяновская область, Ульяновск, р-н Заволжский, Заводской проезд, 31",54.3272184,48.48640295070547,Zavolzhskiy,Ulyanovsk Oblast,Ulyanovsk,Заводской проезд,31,3,9,1,30.2,,8.0,,3.0,2015.0,,,1.0,,1.0,1.0,3.0,1.0,8.0,5.0
https://ulyanovsk.cian.ru/sale/flat/299689262/,2024-03-18 04:14:00,2850000,1.0,"Ульяновская область, Ульяновск, р-н Засвияжский, ул. Шигаева, 9",54.2664373,48.27774909710348,Засвияжский район,Ulyanovsk Oblast,Ulyanovsk,улица Шигаева,9,7,10,1,35.0,18.0,7.0,2.6,3.0,1995.0,4.0,1.0,1.0,1.0,1.0,1.0,4.0,1.0,14.0,8.0
https://ulyanovsk.cian.ru/sale/flat/275286686/,2024-03-19 21:55:00,3800000,1.0,"Ульяновская область, Ульяновск, р-н Ленинский, бул. Архитекторов, 11",54.3477886,48.34013990150686,Ленинский район,Ulyanovsk Oblast,Ulyanovsk,бульвар Архитекторов,11,9,9,1,37.4,18.8,7.5,,2.0,2014.0,4.0,,1.0,,1.0,1.0,1.0,1.0,5.0,3.0
https://ulyanovsk.cian.ru/sale/flat/273935200/,2024-03-18 23:10:00,3000000,1.0,"Ульяновская область, Ульяновск, р-н Железнодорожный, ул. Автомобилистов, 7А",54.2507774,48.32625826041708,Железнодорожный район,Ulyanovsk Oblast,Ulyanovsk,улица Автомобилистов,7А,5,16,1,32.6,,9.0,,2.0,2016.0,1.0,,1.0,,2.0,1.0,4.0,,17.0,11.0
https://ulyanovsk.cian.ru/sale/flat/292067082/,2024-03-18 10:10:00,3000000,1.0,"Ульяновская область, Ульяновск, р-н Железнодорожный, ул. Автомобилистов, 7А",54.2507774,48.32625826041708,Железнодорожный район,Ulyanovsk Oblast,Ulyanovsk,улица Автомобилистов,7А,6,19,1,34.0,,10.0,,2.0,2016.0,1.0,,1.0,,,1.0,4.0,,17.0,11.0
https://ulyanovsk.cian.ru/sale/flat/299051060/,2024-03-15 14:27:00,2300000,1.0,"Ульяновская область, Ульяновск, р-н Железнодорожный, Хрустальная ул., 56",54.2539477,48.333159240887184,Железнодорожный район,Ulyanovsk Oblast,Ulyanovsk,Хрустальная улица,56,2,5,1,34.7,19.0,8.0,,3.0,1992.0,1.0,1.0,1.0,1.0,,1.0,7.0,,18.0,14.0
https://ulyanovsk.cian.ru/sale/flat/276248487/,2024-03-19 22:00:00,2550000,1.0,"Ульяновская область, Ульяновск, р-н Ленинский, Ипподромная ул., 4А",54.3627035,48.35272974306352,Ленинский район,Ulyanovsk Oblast,Ulyanovsk,Ипподромная улица,4А,16,25,1,36.4,,9.0,,,2017.0,3.0,,1.0,,2.0,1.0,,2.0,2.0,3.0
https://ulyanovsk.cian.ru/sale/flat/299148145/,2024-03-18 10:31:00,3600000,1.0,"Ульяновская область, Ульяновск, ул. Игошина, 1",54.2809245,48.2705046,Засвияжский район,Ulyanovsk Oblast,Ulyanovsk,улица Игошина,1,8,10,1,38.1,16.9,10.4,,2.0,2015.0,4.0,2.0,1.0,1.0,1.0,1.0,6.0,2.0,11.0,8.0
https://ulyanovsk.cian.ru/sale/flat/298170052/,2024-03-18 23:14:00,3480000,1.0,"Ульяновская область, Ульяновск, р-н Заволжский, просп. Врача Сурова, 27",54.39104845,48.5840472,Zavolzhskiy,Ulyanovsk Oblast,Ulyanovsk,проспект Врача Сурова,27,4,9,1,37.6,,9.7,,3.0,1994.0,4.0,,1.0,,2.0,1.0,4.0,1.0,12.0,8.0
https://ulyanovsk.cian.ru/sale/flat/295019443/,2024-03-18 23:12:00,2380000,1.0,"Ульяновская область, Ульяновск, р-н Заволжский, ул. Тельмана, 1",54.34793355,48.53489755128744,Zavolzhskiy,Ulyanovsk Oblast,Ulyanovsk,улица Тельмана,1,1,5,1,30.8,,6.0,,3.0,1973.0,4.0,,1.0,,,1.0,7.0,1.0,8.0,7.0
https://ulyanovsk.cian.ru/sale/flat/299506328/,2024-03-12 13:46:00,2999999,1.0,"Ульяновская область, Ульяновск, р-н Засвияжский, ул. Рябикова, 110",54.2686351,48.2836505,Засвияжский район,Ulyanovsk Oblast,Ulyanovsk,улица Рябикова,110,2,10,1,38.6,18.0,7.0,,3.0,1992.0,4.0,2.0,1.0,1.0,1.0,1.0,9.0,1.0,23.0,9.0
https://ulyanovsk.cian.ru/sale/flat/299086312/,2024-03-19 20:25:00,2900000,1.0,"Ульяновская область, Ульяновск, р-н Засвияжский, ул. Юго-западная, 14",54.2782019,48.26098125298516,Засвияжский район,Ulyanovsk Oblast,Ulyanovsk,Юго-Западная улица,14,9,12,1,25.7,14.0,5.5,2.7,,2022.0,4.0,2.0,1.0,1.0,2.0,1.0,2.0,,6.0,2.0
https://ulyanovsk.cian.ru/sale/flat/297493765/,2024-03-04 19:15:00,3800000,1.0,"Ульяновская область, Ульяновск, ул. Розы Люксембург, 47",54.3529462,48.3795816,Ленинский район,Ulyanovsk Oblast,Ulyanovsk,улица Розы Люксембург,,1,3,1,40.0,20.0,10.0,3.3,2.0,,1.0,,1.0,1.0,,,4.0,,11.0,9.0
https://ulyanovsk.cian.ru/sale/flat/299651247/,2024-03-15 18:28:00,3900000,1.0,"Ульяновская область, Ульяновск, р-н Ленинский, ул. Робеспьера, 89",54.3220301,48.38176609284588,Ленинский район,Ulyanovsk Oblast,Ulyanovsk,улица Робеспьера,89,5,5,1,38.0,21.0,8.0,,3.0,1989.0,,,1.0,1.0,,1.0,5.0,2.0,14.0,5.0
https://ulyanovsk.cian.ru/sale/flat/299426458/,2024-03-13 11:03:00,3580000,1.0,"Ульяновская область, Ульяновск, р-н Ленинский, ул. Минаева, 5",54.3080709,48.38298413011096,Ленинский район,Ulyanovsk Oblast,Ulyanovsk,Minaev street,5,6,9,1,32.78,19.5,6.0,2.5,2.0,1967.0,,1.0,1.0,,1.0,1.0,7.0,4.0,14.0,9.0
https://ulyanovsk.cian.ru/sale/flat/291793681/,2024-03-18 23:23:00,3750000,1.0,"Ульяновская область, Ульяновск, р-н Заволжский, ул. Еремецкого, 38",54.3827765,48.568272,Zavolzhskiy,Ulyanovsk Oblast,Ulyanovsk,улица Еремецкого,,9,10,1,36.7,,10.0,,2.0,2022.0,4.0,,1.0,,1.0,1.0,9.0,,13.0,9.0
https://ulyanovsk.cian.ru/sale/flat/291425207/,2024-03-14 09:55:00,2450000,1.0,"Ульяновская область, Ульяновск, р-н Железнодорожный, ул. Варейкиса, 20",54.2548366,48.33359346954196,Железнодорожный район,Ulyanovsk Oblast,Ulyanovsk,улица Варейкиса,20,3,9,1,35.5,,7.1,,3.0,1979.0,4.0,,1.0,,2.0,1.0,7.0,,19.0,14.0
https://ulyanovsk.cian.ru/sale/flat/291838703/,2024-12-09 20:53:00,3250000,1.0,"Ульяновская область, Ульяновск, р-н Железнодорожный, просп. Гая, 1",54.2594037,48.3273673,Железнодорожный район,Ulyanovsk Oblast,Ulyanovsk,проспект Гая,45/1,10,10,1,40.0,19.0,8.3,2.8,2.0,,4.0,2.0,1.0,1.0,1.0,1.0,9.0,3.0,22.0,17.0
https://ulyanovsk.cian.ru/sale/flat/289987065/,2024-03-14 09:53:00,2500000,1.0,"Ульяновская область, Ульяновск, р-н Ленинский, Верхнеполевая ул., 21",54.33069695,48.38614943157901,Ленинский район,Ulyanovsk Oblast,Ulyanovsk,Верхнеполевая улица,21,3,9,1,34.0,,11.5,,2.0,1980.0,1.0,,1.0,,1.0,,3.0,3.0,17.0,7.0
https://ulyanovsk.cian.ru/sale/flat/284910168/,2024-03-14 09:49:00,3700000,1.0,"Ульяновская область, Ульяновск, р-н Ленинский, ул. Гагарина, 23",54.328953,48.3875142,Ленинский район,Ulyanovsk Oblast,Ulyanovsk,улица Гагарина,23,1,5,1,32.5,,6.5,,3.0,2019.0,1.0,,1.0,,,1.0,4.0,3.0,17.0,8.0
https://ulyanovsk.cian.ru/sale/flat/299694390/,2024-03-17 18:51:00,2950000,1.0,"Ульяновская область, Ульяновск, р-н Засвияжский, ул. Юго-западная, 6",54.28209755,48.26281926931476,Засвияжский район,Ulyanovsk Oblast,Ulyanovsk,Юго-Западная улица,6,6,9,1,38.2,16.5,10.0,2.7,,2022.0,4.0,2.0,1.0,1.0,1.0,1.0,1.0,,5.0,3.0
https://ulyanovsk.cian.ru/sale/flat/289396962/,2024-03-14 09:53:00,3714000,1.0,"Ульяновская область, Ульяновск, р-н Засвияжский, ул. 154-й Стрелковой дивизии, 52",54.2863916,48.25968527601507,Засвияжский район,Ulyanovsk Oblast,Ulyanovsk,улица 154-й Стрелковой Дивизии,52,4,4,1,35.1,,17.0,,1.0,2020.0,5.0,,1.0,,,1.0,1.0,,4.0,2.0
https://ulyanovsk.cian.ru/sale/flat/291706065/,2024-03-14 09:54:00,2650000,1.0,"Ульяновская область, Ульяновск, р-н Ленинский, просп. Нариманова, 83",54.357408750000005,48.351001749589045,Ленинский район,Ulyanovsk Oblast,Ulyanovsk,проспект Нариманова,83,5,9,1,35.9,,9.4,,3.0,1986.0,,,1.0,,1.0,1.0,1.0,1.0,8.0,5.0
https://ulyanovsk.cian.ru/sale/flat/292420279/,2024-03-17 23:43:00,3695000,1.0,"Ульяновская область, Ульяновск, р-н Ленинский, ул. Робеспьера, 5к2",54.31867135,48.37448016696575,Ленинский район,Ulyanovsk Oblast,Ulyanovsk,улица Робеспьера,5 к2,2,5,1,45.0,20.3,11.0,,,2016.0,1.0,1.0,1.0,1.0,,1.0,6.0,3.0,8.0,9.0
https://ulyanovsk.cian.ru/sale/flat/298527513/,2024-03-14 18:37:00,2800000,1.0,"Ульяновская область, Ульяновск, р-н Засвияжский, ул. Генерала Мельникова, 8к2",54.27852675,48.26873857346854,Засвияжский район,Ulyanovsk Oblast,Ulyanovsk,улица Генерала Мельникова,8 к2,3,9,1,30.5,14.0,7.8,2.7,2.0,2013.0,5.0,,1.0,1.0,1.0,1.0,7.0,1.0,11.0,7.0
https://ulyanovsk.cian.ru/sale/flat/299670322/,2024-03-18 13:20:00,3600000,1.0,"Ульяновская область, Ульяновск, ул. Карбышева, 44",54.39219465,48.578787,Zavolzhskiy,Ulyanovsk Oblast,Ulyanovsk,улица Карбышева,44,2,20,1,35.0,14.0,11.5,,3.0,2019.0,3.0,1.0,1.0,1.0,2.0,1.0,4.0,1.0,10.0,6.0
https://ulyanovsk.cian.ru/sale/flat/299197592/,2024-03-12 10:11:00,2300000,1.0,"Ульяновская область, Ульяновск, р-н Заволжский, просп. Созидателей, 80",54.367734600000006,48.584979057914325,Zavolzhskiy,Ulyanovsk Oblast,Ulyanovsk,проспект Созидателей,80,9,10,1,29.0,12.0,6.0,2.65,3.0,1993.0,4.0,1.0,1.0,1.0,1.0,1.0,8.0,1.0,15.0,7.0
https://ulyanovsk.cian.ru/sale/flat/284619258/,2024-03-14 09:49:00,2450000,1.0,"Ульяновская область, Ульяновск, р-н Железнодорожный, Локомотивная ул., 9",54.2881902,48.3667081,Железнодорожный район,Ulyanovsk Oblast,Ulyanovsk,Локомотивная улица,9,5,5,1,30.0,,7.0,,2.0,1964.0,1.0,,1.0,,,,,1.0,6.0,4.0
https://ulyanovsk.cian.ru/sale/flat/289921634/,2024-03-14 09:57:00,2770000,1.0,"Ульяновская область, Ульяновск, р-н Железнодорожный, ул. Варейкиса, 50",54.2551958,48.34010883029463,Железнодорожный район,Ulyanovsk Oblast,Ulyanovsk,улица Варейкиса,50,5,16,1,38.4,,11.0,,,2022.0,,,1.0,,1.0,1.0,6.0,1.0,16.0,13.0
https://ulyanovsk.cian.ru/sale/flat/290939049/,2024-03-14 09:54:00,3900000,1.0,"Ульяновская область, Ульяновск, р-н Железнодорожный, ул. Державина, 9А",54.2697537,48.3270788,Железнодорожный район,Ulyanovsk Oblast,Ulyanovsk,улица Державина,9А,5,5,1,44.3,,10.0,,2.0,2004.0,1.0,,1.0,,,1.0,6.0,3.0,8.0,6.0
https://ulyanovsk.cian.ru/sale/flat/290381690/,2024-10-04 15:40:00,3080000,1.0,"Ульяновская область, Ульяновск, р-н Ленинский, ул. Репина, 51",54.3477321,48.35289115379084,Ленинский район,Ulyanovsk Oblast,Ulyanovsk,улица Репина,51,6,10,1,34.38,17.4,7.1,2.7,2.0,2005.0,4.0,2.0,1.0,1.0,1.0,1.0,3.0,1.0,9.0,4.0
https://ulyanovsk.cian.ru/sale/flat/290073976/,2024-03-14 09:52:00,3250000,1.0,"Ульяновская область, Ульяновск, р-н Засвияжский, ул. Юго-западная, 4",54.2820788,48.26380330139267,Засвияжский район,Ulyanovsk Oblast,Ulyanovsk,Юго-Западная улица,4,3,9,1,36.0,,7.0,,,2020.0,4.0,,1.0,,2.0,1.0,1.0,,5.0,4.0
https://ulyanovsk.cian.ru/sale/flat/288928381/,2024-03-18 23:23:00,2990000,1.0,"Ульяновская область, Ульяновск, р-н Засвияжский, ул. Игошина, 8",54.27886965,48.2672605040551,Засвияжский район,Ulyanovsk Oblast,Ulyanovsk,улица Игошина,8,8,9,1,34.7,,9.4,,3.0,2015.0,1.0,,1.0,,1.0,1.0,6.0,1.0,11.0,4.0
https://ulyanovsk.cian.ru/sale/flat/292646582/,2024-03-18 09:25:00,2999000,1.0,"Ульяновская область, Ульяновск, р-н Засвияжский, ул. Генерала Мельникова, 6",54.2791738,48.2707447,Засвияжский район,Ulyanovsk Oblast,Ulyanovsk,улица Генерала Мельникова,6,2,10,1,34.9,17.9,8.0,2.7,2.0,2014.0,4.0,2.0,,,1.0,,7.0,2.0,12.0,9.0
https://ulyanovsk.cian.ru/sale/flat/291029230/,2024-03-14 09:54:00,3850000,1.0,"Ульяновская область, Ульяновск, р-н Засвияжский, ул. Генерала Мельникова, 24",54.27786215,48.26685944785612,Засвияжский район,Ulyanovsk Oblast,Ulyanovsk,улица Генерала Мельникова,24,13,14,1,34.9,,7.8,,2.0,2013.0,4.0,,1.0,,2.0,1.0,6.0,1.0,11.0,5.0
https://ulyanovsk.cian.ru/sale/flat/282834303/,2024-03-14 09:46:00,3750000,1.0,"Ульяновская область, Ульяновск, р-н Ленинский, ул. Защитников Отечества, 21",54.3444162,48.3386996698318,Ленинский район,Ulyanovsk Oblast,Ulyanovsk,улица Защитников Отечества,21,2,7,1,39.4,,12.1,,,2022.0,3.0,,1.0,,1.0,1.0,2.0,,4.0,2.0
https://ulyanovsk.cian.ru/sale/flat/294692831/,2024-02-20 09:51:00,3500000,1.0,"Ульяновская область, Ульяновск, р-н Ленинский, ул. Архитектора Шодэ, 6",54.34755045,48.34771879830915,Ленинский район,Ulyanovsk Oblast,Ulyanovsk,улица Архитектора Шодэ,6,1,10,1,37.1,19.6,9.0,,3.0,2008.0,4.0,2.0,1.0,1.0,2.0,1.0,3.0,1.0,6.0,3.0
https://ulyanovsk.cian.ru/sale/flat/291255853/,2024-03-14 09:55:00,3640000,1.0,"Ульяновская область, Ульяновск, р-н Ленинский, Ипподромная ул., 4Б",54.36355335,48.35248398084629,Ленинский район,Ulyanovsk Oblast,Ulyanovsk,Ипподромная улица,4Б,2,19,1,34.0,,6.0,,2.0,2018.0,,,1.0,,,1.0,,2.0,2.0,3.0
https://ulyanovsk.cian.ru/sale/flat/291278618/,2024-03-14 09:54:00,3400000,1.0,"Ульяновская область, Ульяновск, р-н Заволжский, просп. Созидателей, 114/2к1",54.3575614,48.5647736,Zavolzhskiy,Ulyanovsk Oblast,Ulyanovsk,проспект Созидателей,,2,9,1,40.6,,13.8,,,2022.0,,,1.0,,2.0,1.0,,,4.0,1.0
https://ulyanovsk.cian.ru/sale/flat/292210340/,2024-03-18 23:23:00,3990000,1.0,"Ульяновская область, Ульяновск, р-н Ленинский, ул. Гагарина, 31",54.3321085,48.3866001,Ленинский район,Ulyanovsk Oblast,Ulyanovsk,улица Гагарина,31,7,18,1,40.6,,12.0,,,1988.0,,,1.0,,2.0,1.0,4.0,3.0,16.0,6.0
https://ulyanovsk.cian.ru/sale/flat/287512310/,2024-03-14 09:51:00,3000000,1.0,"Ульяновская область, Ульяновск, р-н Засвияжский, ул. 154-й Стрелковой дивизии, 20",54.28564465,48.26337258407271,Засвияжский район,Ulyanovsk Oblast,Ulyanovsk,улица 154-й Стрелковой Дивизии,20,2,3,1,35.4,,12.0,,3.0,2016.0,4.0,,1.0,,,1.0,1.0,,5.0,2.0
https://ulyanovsk.cian.ru/sale/flat/288990293/,2024-03-15 23:27:00,2295000,1.0,"Ульяновская область, Ульяновск, р-н Заволжский, ул. Тельмана, 6",54.34699225,48.53644211733602,Zavolzhskiy,Ulyanovsk Oblast,Ulyanovsk,улица Тельмана,6,1,9,1,32.5,,7.4,,3.0,1972.0,1.0,,1.0,,1.0,1.0,7.0,1.0,8.0,6.0
https://ulyanovsk.cian.ru/sale/flat/298707725/,2024-02-22 09:07:00,3850000,1.0,"Ульяновская область, Ульяновск, р-н Ленинский, ул. Минаева, 5",54.3080709,48.38298413011096,Ленинский район,Ulyanovsk Oblast,Ulyanovsk,Minaev street,5,3,9,1,35.0,18.0,6.5,,1.0,1967.0,,1.0,1.0,,1.0,1.0,7.0,4.0,14.0,9.0
https://ulyanovsk.cian.ru/sale/flat/291335335/,2024-03-14 09:55:00,3480000,1.0,"Ульяновская область, Ульяновск, р-н Засвияжский, Камышинская ул., 14",54.27160435,48.2961502460507,Засвияжский район,Ulyanovsk Oblast,Ulyanovsk,Камышинская улица,14,3,9,1,35.6,,6.0,,2.0,1983.0,4.0,,1.0,,2.0,1.0,12.0,1.0,32.0,14.0
https://ulyanovsk.cian.ru/sale/flat/289038481/,2024-03-18 23:23:00,3350000,1.0,"Ульяновская область, Ульяновск, р-н Заволжский, просп. Генерала Тюленева, 50",54.3789436,48.5910522,Zavolzhskiy,Ulyanovsk Oblast,Ulyanovsk,проспект Генерала Тюленева,,13,16,1,39.8,,13.8,,,2023.0,3.0,,1.0,,1.0,1.0,15.0,4.0,27.0,16.0
https://ulyanovsk.cian.ru/sale/flat/299680017/,2024-03-18 23:10:00,3850000,1.0,"Ульяновская область, Ульяновск, р-н Засвияжский, Камышинская ул., 105",54.28403155,48.26324380920944,Засвияжский район,Ulyanovsk Oblast,Ulyanovsk,Камышинская улица,105,3,3,1,35.5,,11.5,,,2017.0,3.0,,1.0,,,1.0,1.0,,5.0,2.0
https://ulyanovsk.cian.ru/sale/flat/282319897/,2024-03-18 23:22:00,2390000,1.0,"Ульяновская область, Ульяновск, р-н Засвияжский, ул. Аблукова, 107",54.3083786,48.35433089880337,Засвияжский район,Ulyanovsk Oblast,Ulyanovsk,улица Аблукова,,2,9,1,29.9,,5.5,,3.0,,,,1.0,,2.0,,3.0,1.0,11.0,9.0
https://ulyanovsk.cian.ru/sale/flat/290217384/,2024-03-14 23:11:00,2220000,1.0,"Ульяновская область, Ульяновск, р-н Ленинский, ул. Кобозева, 14",54.3334548,48.390210283982526,Ленинский район,Ulyanovsk Oblast,Ulyanovsk,улица Кобозева,14,2,3,1,22.0,,5.0,,3.0,,,,1.0,,,1.0,4.0,6.0,18.0,7.0
https://ulyanovsk.cian.ru/sale/flat/299676640/,2024-03-16 20:09:00,2500000,1.0,"Ульяновская область, Ульяновск, р-н Засвияжский, ул. Пушкарева, 18",54.30884205,48.35163512812208,Засвияжский район,Ulyanovsk Oblast,Ulyanovsk,улица Пушкарёва,18,2,5,1,30.9,16.4,5.9,2.5,3.0,1969.0,4.0,2.0,1.0,1.0,,1.0,6.0,2.0,10.0,9.0
https://ulyanovsk.cian.ru/sale/flat/292330380/,2024-03-09 10:08:00,3250000,1.0,"Ульяновская область, Ульяновск, р-н Заволжский, просп. Авиастроителей, 33",54.37825165,48.56976538121866,Zavolzhskiy,Ulyanovsk Oblast,Ulyanovsk,проспект Авиастроителей,33,8,9,1,37.0,19.3,9.0,2.7,2.0,1993.0,4.0,1.0,1.0,1.0,1.0,1.0,8.0,,16.0,10.0
https://ulyanovsk.cian.ru/sale/flat/298688309/,2024-03-18 23:26:00,2470000,1.0,"Ульяновская область, Ульяновск, ул. Станкостроителей, 8",54.28982275,48.29556055092456,Засвияжский район,Ulyanovsk Oblast,Ulyanovsk,улица Станкостроителей,8,5,9,1,35.4,,7.3,,,1988.0,4.0,,1.0,,1.0,1.0,6.0,4.0,19.0,16.0
https://ulyanovsk.cian.ru/sale/flat/299617708/,2024-03-18 23:25:00,2400000,1.0,"Ульяновская область, Ульяновск, Самарская ул., 21",54.27071185,48.29239888652883,Засвияжский район,Ulyanovsk Oblast,Ulyanovsk,Самарская улица,21,6,9,1,36.6,,7.0,,,1984.0,4.0,,1.0,,2.0,1.0,14.0,1.0,34.0,15.0
https://ulyanovsk.cian.ru/sale/flat/291383123/,2024-03-18 23:23:00,2920000,1.0,"Ульяновская область, Ульяновск, р-н Заволжский, просп. Врача Сурова, 31",54.3920189,48.5852943,Zavolzhskiy,Ulyanovsk Oblast,Ulyanovsk,проспект Врача Сурова,31,9,14,1,36.5,15.1,11.6,,,2022.0,5.0,,1.0,,1.0,1.0,4.0,1.0,9.0,6.0
https://ulyanovsk.cian.ru/sale/flat/298426411/,2024-03-12 16:29:00,2600000,1.0,"Ульяновская область, Ульяновск, р-н Засвияжский, Камышинская ул., 91Б",54.2833381,48.26720178104419,Засвияжский район,Ulyanovsk Oblast,Ulyanovsk,Камышинская улица,91Б,3,3,1,25.8,13.2,7.1,2.8,3.0,2015.0,3.0,1.0,1.0,1.0,,1.0,5.0,1.0,7.0,3.0
https://ulyanovsk.cian.ru/sale/flat/299462312/,2024-03-16 15:07:00,2499999,1.0,"Ульяновская область, Ульяновск, р-н Засвияжский, Кузоватовская ул., 40А",54.28072765,48.28931454660836,Засвияжский район,Ulyanovsk Oblast,Ulyanovsk,Кузоватовская улица,40А,3,5,1,32.5,17.5,6.3,2.48,,1996.0,1.0,1.0,1.0,1.0,,1.0,11.0,3.0,35.0,21.0
https://ulyanovsk.cian.ru/sale/flat/286781653/,2024-03-14 09:50:00,3750000,1.0,"Ульяновская область, Ульяновск, р-н Железнодорожный, Южная ул., 17",54.29983970000001,48.36498401309332,Железнодорожный район,Ulyanovsk Oblast,Ulyanovsk,Южная улица,17,1,10,1,37.4,,8.0,,3.0,2007.0,4.0,,1.0,,2.0,1.0,4.0,3.0,13.0,10.0
https://ulyanovsk.cian.ru/sale/flat/297089762/,2024-03-12 11:16:00,2600000,1.0,"Ульяновская область, Ульяновск, р-н Ленинский, бул. Архитекторов, 11",54.3477886,48.34013990150686,Ленинский район,Ulyanovsk Oblast,Ulyanovsk,бульвар Архитекторов,11,5,10,1,30.0,,6.0,2.7,,2014.0,4.0,1.0,1.0,1.0,1.0,1.0,1.0,1.0,5.0,3.0
https://ulyanovsk.cian.ru/sale/flat/295512982/,2024-12-25 12:28:00,3950000,1.0,"Ульяновская область, Ульяновск, р-н Ленинский, ул. Радищева, 148А",54.34279745,48.39583640642563,Ленинский район,Ulyanovsk Oblast,Ulyanovsk,улица Радищева,148А,4,25,1,30.9,18.0,6.0,2.8,2.0,2017.0,,1.0,1.0,1.0,3.0,1.0,3.0,2.0,7.0,5.0
https://ulyanovsk.cian.ru/sale/flat/290889483/,2024-03-14 09:53:00,4000000,1.0,"Ульяновская область, Ульяновск, Транспортная ул., 2",54.3017107,48.36950072283963,Железнодорожный район,Ulyanovsk Oblast,Ulyanovsk,Транспортная улица,2,1,10,1,45.4,,25.0,,3.0,2009.0,4.0,,1.0,,2.0,1.0,5.0,6.0,14.0,10.0
https://ulyanovsk.cian.ru/sale/flat/292778144/,2024-03-18 23:00:00,2850000,1.0,"Ульяновская область, Ульяновск, р-н Засвияжский, ул. Рябикова, 116",54.2675267,48.2822007,Засвияжский район,Ulyanovsk Oblast,Ulyanovsk,улица Рябикова,116,2,9,1,35.0,,8.0,,3.0,1994.0,4.0,,1.0,,,1.0,7.0,1.0,16.0,9.0
https://ulyanovsk.cian.ru/sale/flat/299695263/,2024-03-17 19:52:00,2350000,1.0,"Ульяновская область, Ульяновск, р-н Железнодорожный, Локомотивная ул., 7",54.2883882,48.3674257,Железнодорожный район,Ulyanovsk Oblast,Ulyanovsk,Локомотивная улица,7,4,5,1,30.0,17.5,6.0,,2.0,1964.0,1.0,1.0,1.0,,,,,1.0,6.0,4.0
https://ulyanovsk.cian.ru/sale/flat/286306210/,2024-03-18 23:22:00,2200000,1.0,"Ульяновская область, Ульяновск, р-н Заволжский, ул. Тельмана, 18",54.34776025,48.54205425122075,Zavolzhskiy,Ulyanovsk Oblast,Ulyanovsk,улица Тельмана,18,5,5,1,30.4,,6.0,,3.0,1970.0,1.0,,1.0,,,1.0,7.0,1.0,10.0,7.0
https://ulyanovsk.cian.ru/sale/flat/289879400/,2024-03-14 09:53:00,3700000,1.0,"Ульяновская область, Ульяновск, р-н Ленинский, ул. Карла Либкнехта, 10",54.30886765,48.38222435,Ленинский район,Ulyanovsk Oblast,Ulyanovsk,улица Карла Либкнехта,10,1,5,1,31.0,,6.0,,3.0,1967.0,,,1.0,,,,6.0,4.0,13.0,10.0
https://ulyanovsk.cian.ru/sale/flat/299719664/,2024-03-18 12:48:00,3200000,1.0,"Ульяновская область, Ульяновск, р-н Засвияжский, ул. Шигаева, 4",54.265191400000006,48.27778197706445,Засвияжский район,Ulyanovsk Oblast,Ulyanovsk,улица Шигаева,4,10,10,1,37.0,18.0,8.0,2.6,3.0,2012.0,,2.0,1.0,1.0,1.0,1.0,3.0,1.0,13.0,7.0
https://ulyanovsk.cian.ru/sale/flat/286089508/,2024-03-14 09:47:00,2250000,1.0,"Ульяновская область, Ульяновск, р-н Ленинский, ул. Розы Люксембург, 20",54.3463301,48.38703211387883,Ленинский район,Ulyanovsk Oblast,Ulyanovsk,улица Розы Люксембург,20,3,4,1,31.0,,6.0,,,1963.0,1.0,,1.0,,,,4.0,1.0,10.0,5.0
https://ulyanovsk.cian.ru/sale/flat/227706400/,2024-02-06 20:29:00,2200000,1.0,"Ульяновская область, Ульяновск, р-н Засвияжский, ул. Пушкарева, 52",54.3141752,48.35817905228051,Засвияжский район,Ulyanovsk Oblast,Ulyanovsk,улица Пушкарёва,52,9,9,1,30.0,,,,3.0,1977.0,1.0,1.0,1.0,1.0,1.0,,4.0,2.0,9.0,10.0
https://ulyanovsk.cian.ru/sale/flat/299583804/,2024-03-18 10:10:00,2700000,1.0,"Ульяновская область, Ульяновск, р-н Засвияжский, Азовская ул., 93",54.32177135,48.3497925,Засвияжский район,Ulyanovsk Oblast,Ulyanovsk,Азовская улица,93,2,5,1,32.6,17.0,7.4,,3.0,1982.0,4.0,,1.0,,,1.0,2.0,1.0,7.0,7.0
https://ulyanovsk.cian.ru/sale/flat/291840693/,2024-03-14 09:47:00,3500000,1.0,"Ульяновская область, Ульяновск, р-н Заволжский, просп. Зырина, 17",54.3675863,48.56854740449145,Zavolzhskiy,Ulyanovsk Oblast,Ulyanovsk,проспект Зырина,17,4,4,1,38.6,28.6,5.0,,,2022.0,1.0,,1.0,,,1.0,4.0,,9.0,4.0
https://ulyanovsk.cian.ru/sale/flat/294094220/,2024-03-18 22:56:00,2150000,1.0,"Ульяновская область, Ульяновск, р-н Засвияжский, ул. Пушкарева, 52",54.3141752,48.35817905228051,Засвияжский район,Ulyanovsk Oblast,Ulyanovsk,улица Пушкарёва,52,2,9,1,21.1,,5.1,,3.0,1977.0,1.0,,1.0,,,,4.0,2.0,9.0,10.0
https://ulyanovsk.cian.ru/sale/flat/299676738/,2024-03-16 20:18:00,3500000,1.0,"Ульяновская область, Ульяновск, р-н Засвияжский, Самарская ул., 27к2",54.26897345,48.293341611502974,Засвияжский район,Ulyanovsk Oblast,Ulyanovsk,Самарская улица,27 к2,9,11,1,38.0,,,,3.0,2010.0,4.0,,1.0,1.0,1.0,1.0,11.0,1.0,32.0,12.0
https://ulyanovsk.cian.ru/sale/flat/289125907/,2024-03-14 09:52:00,2200000,1.0,"Ульяновская область, Ульяновск, р-н Ленинский, Ипподромная ул., 13Г",54.3646416,48.3511202015132,Ленинский район,Ulyanovsk Oblast,Ulyanovsk,Ипподромная улица,13Г,3,3,1,20.0,,6.0,,3.0,2015.0,,,1.0,,,1.0,,2.0,2.0,3.0
https://ulyanovsk.cian.ru/sale/flat/299782140/,2024-03-19 17:46:00,2980000,1.0,"Ульяновская область, Ульяновск, ул. Рябикова, 134",54.26340815,48.278082063555054,Засвияжский район,Ulyanovsk Oblast,Ulyanovsk,улица Рябикова,134,2,10,1,35.4,17.5,8.6,,3.0,2011.0,4.0,2.0,1.0,1.0,1.0,1.0,2.0,,10.0,2.0
https://ulyanovsk.cian.ru/sale/flat/296629588/,2024-03-19 17:40:00,3100000,1.0,"Ульяновская область, Ульяновск, р-н Засвияжский, ул. Генерала Мельникова, 10",54.2770925,48.26940336696515,Засвияжский район,Ulyanovsk Oblast,Ulyanovsk,улица Генерала Мельникова,10,6,10,1,35.1,18.0,8.0,2.7,3.0,2010.0,5.0,2.0,1.0,,2.0,1.0,7.0,1.0,13.0,9.0
https://ulyanovsk.cian.ru/sale/flat/299204200/,2024-03-13 08:13:00,3290000,1.0,"Ульяновская область, Ульяновск, р-н Засвияжский, Кузоватовская ул., 36А",54.28218195,48.29103829539712,Засвияжский район,Ulyanovsk Oblast,Ulyanovsk,Кузоватовская улица,36А,8,11,1,40.0,18.0,9.0,2.7,3.0,2005.0,1.0,2.0,1.0,1.0,1.0,1.0,12.0,4.0,29.0,22.0
https://ulyanovsk.cian.ru/sale/flat/299582198/,2024-03-19 10:58:00,3400000,1.0,"Ульяновская область, Ульяновск, р-н Засвияжский, ул. Шигаева, 6Б",54.26568565,48.27628651191527,Засвияжский район,Ulyanovsk Oblast,Ulyanovsk,улица Шигаева,6Б,6,9,1,36.0,18.0,9.0,2.7,3.0,,,2.0,1.0,1.0,1.0,1.0,4.0,1.0,13.0,6.0
https://ulyanovsk.cian.ru/sale/flat/298170094/,2024-03-18 09:55:00,2800000,1.0,"Ульяновская область, Ульяновск, ул. Карла Либкнехта, 22",54.307836,48.3867556,Ленинский район,Ulyanovsk Oblast,Ulyanovsk,улица Карла Либкнехта,22,3,9,1,32.6,,6.0,,,1967.0,1.0,,1.0,,2.0,1.0,7.0,5.0,12.0,9.0
https://ulyanovsk.cian.ru/sale/flat/299228055/,2024-03-19 12:41:00,2700000,1.0,"Ульяновская область, Ульяновск, р-н Ленинский, ул. Карла Маркса, 35",54.3223661,48.3880434,Ленинский район,Ulyanovsk Oblast,Ulyanovsk,улица Карла Маркса,35,4,5,1,29.9,18.2,5.6,2.5,3.0,1963.0,1.0,1.0,1.0,,,,6.0,4.0,18.0,7.0
https://ulyanovsk.cian.ru/sale/flat/298348004/,2024-03-18 23:14:00,2880000,1.0,"Ульяновская область, Ульяновск, р-н Засвияжский, ул. Рябикова, 45",54.27882265,48.29552089425286,Засвияжский район,Ulyanovsk Oblast,Ulyanovsk,улица Рябикова,45,3,5,1,35.1,,7.0,,2.0,1981.0,4.0,,1.0,,2.0,1.0,14.0,4.0,37.0,23.0
https://ulyanovsk.cian.ru/sale/flat/298938131/,2024-02-25 13:42:00,3930000,1.0,"Ульяновская область, Ульяновск, р-н Ленинский, ул. Защитников Отечества, 9",54.3462514,48.33698021080114,Ленинский район,Ulyanovsk Oblast,Ulyanovsk,улица Защитников Отечества,9,5,11,1,30.5,15.8,8.3,,2.0,2016.0,4.0,2.0,1.0,1.0,1.0,1.0,2.0,,4.0,2.0
https://ulyanovsk.cian.ru/sale/flat/289227462/,2024-03-18 13:25:00,2550000,1.0,"Ульяновская область, Ульяновск, р-н Засвияжский, ул. Рябикова, 73",54.2722933,48.28969067360741,Засвияжский район,Ulyanovsk Oblast,Ulyanovsk,улица Рябикова,73,3,9,1,35.4,18.4,7.0,2.6,,1982.0,4.0,1.0,1.0,,1.0,1.0,12.0,2.0,35.0,16.0
https://ulyanovsk.cian.ru/sale/flat/298491327/,2024-03-18 10:40:00,3950000,1.0,"Ульяновская область, Ульяновск, р-н Ленинский, ул. Можайского, 14",54.3249119,48.38717640119695,Ленинский район,Ulyanovsk Oblast,Ulyanovsk,улица Можайского,14,3,4,1,30.4,,8.0,,2.0,1975.0,,,1.0,,,1.0,6.0,2.0,18.0,6.0
https://ulyanovsk.cian.ru/sale/flat/299270719/,2024-03-05 11:16:00,3300000,1.0,"Ульяновская область, Ульяновск, р-н Железнодорожный, Хрустальная ул., 31",54.2577543,48.3348387,Железнодорожный район,Ulyanovsk Oblast,Ulyanovsk,Хрустальная улица,31,8,12,1,36.0,18.0,8.0,2.5,3.0,1996.0,1.0,1.0,1.0,1.0,2.0,1.0,9.0,3.0,22.0,16.0
https://ulyanovsk.cian.ru/sale/flat/295990266/,2024-03-19 13:00:00,3180000,1.0,"Ульяновская область, Ульяновск, р-н Заволжский, Новосондецкий бул., 15",54.3806808,48.581423,Zavolzhskiy,Ulyanovsk Oblast,Ulyanovsk,Новосондецкий бульвар,15,9,10,1,38.11,19.0,9.2,,3.0,1984.0,4.0,,1.0,,,1.0,15.0,3.0,23.0,18.0
https://ulyanovsk.cian.ru/sale/flat/299095383/,2024-03-15 11:19:00,2900000,1.0,"Ульяновская область, Ульяновск, р-н Засвияжский, ул. 154-й Стрелковой дивизии, 48",54.2869152,48.26065084709697,Засвияжский район,Ulyanovsk Oblast,Ulyanovsk,улица 154-й Стрелковой Дивизии,48,1,3,1,31.5,25.0,,2.7,2.0,2017.0,4.0,2.0,1.0,1.0,,1.0,1.0,,4.0,2.0
https://ulyanovsk.cian.ru/sale/flat/298491322/,2024-03-18 10:10:00,3350000,1.0,"Ульяновская область, Ульяновск, р-н Ленинский, Панорамная ул., 75",54.346631650000006,48.34355361140165,Ленинский район,Ulyanovsk Oblast,Ulyanovsk,Панорамная улица,75,2,14,1,35.6,,8.0,,3.0,2013.0,4.0,,1.0,,2.0,1.0,1.0,,5.0,2.0
https://ulyanovsk.cian.ru/sale/flat/299685857/,2024-03-17 09:47:00,3499000,1.0,"Ульяновская область, Ульяновск, р-н Ленинский, ул. Скочилова, 9",54.349046650000005,48.34249596466159,Ленинский район,Ulyanovsk Oblast,Ulyanovsk,улица Скочилова,9,10,11,1,35.0,17.0,9.0,,3.0,2007.0,4.0,1.0,1.0,1.0,1.0,1.0,1.0,1.0,5.0,3.0
https://ulyanovsk.cian.ru/sale/flat/299496455/,2024-03-18 10:40:00,2700000,1.0,"Ульяновская область, Ульяновск, р-н Ленинский, просп. Нариманова, 71",54.3519601,48.3622797878169,Ленинский район,Ulyanovsk Oblast,Ulyanovsk,проспект Нариманова,71,5,5,1,30.5,18.0,6.0,2.7,3.0,1966.0,1.0,1.0,1.0,,,1.0,3.0,1.0,8.0,6.0
https://ulyanovsk.cian.ru/sale/flat/299583794/,2024-03-18 10:10:00,3500000,1.0,"Ульяновская область, Ульяновск, р-н Засвияжский, Камышинская ул., 8",54.2823469,48.26191466075269,Засвияжский район,Ulyanovsk Oblast,Ulyanovsk,Камышинская улица,8,4,9,1,34.8,,6.9,,3.0,1984.0,4.0,,1.0,,1.0,1.0,1.0,,5.0,2.0
https://ulyanovsk.cian.ru/sale/flat/298001537/,2024-03-18 07:05:00,3100000,1.0,"Ульяновская область, Ульяновск, Ипподромная ул., 4А",54.3625016,48.3524448,Ленинский район,Ulyanovsk Oblast,Ulyanovsk,Ипподромная улица,4А,21,24,1,41.0,17.5,10.0,2.7,2.0,2017.0,3.0,1.0,1.0,,4.0,1.0,,2.0,2.0,3.0
https://ulyanovsk.cian.ru/sale/flat/298347996/,2024-03-18 10:10:00,2630000,1.0,"Ульяновская область, Ульяновск, р-н Засвияжский, ул. Пушкарева, 24",54.3100597,48.35180816346818,Засвияжский район,Ulyanovsk Oblast,Ulyanovsk,улица Пушкарёва,24,3,9,1,32.0,,6.0,,3.0,1972.0,1.0,,1.0,,,,6.0,2.0,11.0,10.0
https://ulyanovsk.cian.ru/sale/flat/297271840/,2024-03-18 11:24:00,2780000,1.0,"Ульяновская область, Ульяновск, р-н Засвияжский, Камышинская ул., 14",54.27160435,48.2961502460507,Засвияжский район,Ulyanovsk Oblast,Ulyanovsk,Камышинская улица,14,8,9,1,37.3,18.3,7.0,,3.0,1983.0,4.0,1.0,1.0,1.0,1.0,1.0,12.0,1.0,32.0,14.0
https://ulyanovsk.cian.ru/sale/flat/299068734/,2024-02-28 18:09:00,2300000,1.0,"Ульяновская область, Ульяновск, р-н Засвияжский, Отрадная ул., 73",54.2691887,48.28160126405443,Засвияжский район,Ulyanovsk Oblast,Ulyanovsk,Отрадная улица,73,2,6,1,33.4,,7.0,,,1996.0,1.0,1.0,1.0,1.0,,1.0,7.0,1.0,25.0,9.0
https://ulyanovsk.cian.ru/sale/flat/298281725/,2024-03-18 10:10:00,2500000,1.0,"Ульяновская область, Ульяновск, р-н Ленинский, ул. Гафурова, 11",54.34534915,48.375446535,Ленинский район,Ulyanovsk Oblast,Ulyanovsk,улица Гафурова,11,3,5,1,29.6,,5.6,,3.0,1971.0,1.0,,1.0,,,1.0,5.0,1.0,13.0,6.0
https://ulyanovsk.cian.ru/sale/flat/299463778/,2024-03-19 10:10:00,3600000,1.0,"Ульяновская область, Ульяновск, р-н Ленинский, Красноармейская ул., 10",54.3237393,48.40208934063561,Ленинский район,Ulyanovsk Oblast,Ulyanovsk,Красноармейская улица,10,3,5,1,30.6,15.0,6.0,2.7,3.0,1970.0,1.0,2.0,,,,,5.0,7.0,16.0,7.0
https://ulyanovsk.cian.ru/sale/flat/299278068/,2024-03-16 15:42:00,3400000,1.0,"Ульяновская область, Ульяновск, р-н Железнодорожный, ул. Варейкиса, 52",54.2556041,48.3304281,Железнодорожный район,Ulyanovsk Oblast,Ulyanovsk,улица Варейкиса,,7,16,1,35.2,,10.0,,3.0,2023.0,,1.0,1.0,1.0,2.0,1.0,7.0,1.0,23.0,15.0
https://ulyanovsk.cian.ru/sale/flat/299745771/,2024-03-18 23:09:00,3800000,1.0,"Ульяновская область, Ульяновск, р-н Засвияжский, ул. Рябикова, 124с1",54.26564295,48.27986082436578,Засвияжский район,Ulyanovsk Oblast,Ulyanovsk,улица Рябикова,124 с1,1,5,1,38.4,,11.5,,3.0,2008.0,4.0,,1.0,,,1.0,5.0,1.0,14.0,7.0
https://ulyanovsk.cian.ru/sale/flat/297755294/,2024-03-18 21:40:00,2500000,1.0,"Ульяновская область, Ульяновск, р-н Ленинский, ул. Ленина, 140",54.31464455,48.39751299400119,Ленинский район,Ulyanovsk Oblast,Ulyanovsk,Lenin street,140,2,2,1,25.0,13.0,5.0,2.5,3.0,1916.0,,1.0,,,,,6.0,2.0,15.0,5.0
https://ulyanovsk.cian.ru/sale/flat/297867363/,2024-01-30 12:28:00,2700000,1.0,"Ульяновская область, Ульяновск, Хрустальная ул., 29",54.25810915,48.336612420211225,Железнодорожный район,Ulyanovsk Oblast,Ulyanovsk,Хрустальная улица,29,5,5,1,31.0,,,,2.0,1969.0,,1.0,1.0,1.0,,1.0,8.0,3.0,20.0,16.0
https://ulyanovsk.cian.ru/sale/flat/294984204/,2024-03-18 10:10:00,2890000,1.0,"Ульяновская область, Ульяновск, р-н Засвияжский, ул. Рябикова, 110",54.2686351,48.2836505,Засвияжский район,Ulyanovsk Oblast,Ulyanovsk,улица Рябикова,110,10,10,1,35.6,18.6,7.2,2.6,3.0,1992.0,4.0,2.0,1.0,,1.0,1.0,9.0,1.0,23.0,9.0
https://ulyanovsk.cian.ru/sale/flat/285026079/,2024-03-18 15:15:00,3850000,1.0,"Ульяновская область, Ульяновск, р-н Заволжский, ул. Карбышева, 40",54.39114675,48.58145880181938,Zavolzhskiy,Ulyanovsk Oblast,Ulyanovsk,улица Карбышева,40,5,16,1,42.0,19.0,10.0,,3.0,2015.0,1.0,,1.0,,,1.0,4.0,1.0,11.0,7.0
https://ulyanovsk.cian.ru/sale/flat/291988800/,2024-03-15 21:59:00,2500000,1.0,"Ульяновская область, Ульяновск, р-н Засвияжский, ул. Шигаева, 15",54.2673205,48.27652707702087,Засвияжский район,Ulyanovsk Oblast,Ulyanovsk,улица Шигаева,15,10,11,1,39.46,17.3,7.3,2.6,3.0,1995.0,4.0,2.0,1.0,1.0,1.0,1.0,6.0,1.0,14.0,7.0
https://ulyanovsk.cian.ru/sale/flat/292460073/,2024-11-22 09:50:00,3100000,1.0,"Ульяновская область, Ульяновск, ул. Карла Либкнехта, 22",54.3079082,48.3867879,Ленинский район,Ulyanovsk Oblast,Ulyanovsk,улица Карла Либкнехта,22,8,9,1,32.33,,5.6,,3.0,1967.0,1.0,,1.0,1.0,1.0,1.0,7.0,5.0,12.0,9.0
https://ulyanovsk.cian.ru/sale/flat/298852326/,2024-03-18 09:55:00,3650000,1.0,"Ульяновская область, Ульяновск, ул. Варейкиса, 48",54.25442555,48.34011401667172,Железнодорожный район,Ulyanovsk Oblast,Ulyanovsk,улица Варейкиса,48,3,9,1,38.0,,10.2,,1.0,2017.0,4.0,,1.0,,2.0,1.0,6.0,,13.0,13.0
https://ulyanovsk.cian.ru/sale/flat/299646061/,2024-03-15 16:30:00,2500000,1.0,"Ульяновская область, Ульяновск, р-н Заволжский, ул. Димитрова, 75",54.34261,48.5410783,Zavolzhskiy,Ulyanovsk Oblast,Ulyanovsk,улица Димитрова,,7,9,1,30.0,,9.0,,3.0,1981.0,1.0,1.0,1.0,,1.0,1.0,5.0,1.0,5.0,5.0
https://ulyanovsk.cian.ru/sale/flat/294630418/,2024-03-18 10:10:00,4000000,1.0,"Ульяновская область, Ульяновск, р-н Ленинский, ул. Защитников Отечества, 25",54.3440805,48.33788311130952,Ленинский район,Ulyanovsk Oblast,Ulyanovsk,улица Защитников Отечества,25,6,9,1,42.0,,12.0,,,2023.0,3.0,,1.0,,1.0,1.0,2.0,,4.0,2.0
https://ulyanovsk.cian.ru/sale/flat/295738655/,2024-03-18 23:25:00,3850000,1.0,"Ульяновская область, Ульяновск, р-н Ленинский, ул. Скочилова, 7",54.34884335,48.34441579269243,Ленинский район,Ulyanovsk Oblast,Ulyanovsk,улица Скочилова,7,2,10,1,37.2,,12.0,,3.0,2006.0,4.0,,1.0,,2.0,1.0,1.0,1.0,5.0,3.0
https://ulyanovsk.cian.ru/sale/flat/298788683/,2024-03-18 10:55:00,2100000,1.0,"Ульяновская область, Ульяновск, Хрустальная ул., 64",54.251387050000005,48.32971636327599,Железнодорожный район,Ulyanovsk Oblast,Ulyanovsk,Хрустальная улица,64,6,9,1,32.6,19.0,6.0,2.6,,1988.0,1.0,,1.0,,,,5.0,,17.0,14.0
https://ulyanovsk.cian.ru/sale/flat/299135190/,2024-03-18 08:40:00,3850000,1.0,"Ульяновская область, Ульяновск, р-н Ленинский, ул. Скочилова, 9",54.349046650000005,48.34249596466159,Ленинский район,Ulyanovsk Oblast,Ulyanovsk,улица Скочилова,9,1,10,1,33.6,15.8,9.3,2.6,3.0,2007.0,4.0,1.0,,,,,1.0,1.0,5.0,3.0
https://ulyanovsk.cian.ru/sale/flat/295692881/,2024-03-18 23:22:00,3950000,1.0,"Ульяновская область, Ульяновск, р-н Ленинский, ул. Гагарина, 31",54.3321085,48.3866001,Ленинский район,Ulyanovsk Oblast,Ulyanovsk,улица Гагарина,31,6,18,1,35.7,,7.9,,,1988.0,,,1.0,,2.0,1.0,4.0,3.0,16.0,6.0
https://ulyanovsk.cian.ru/sale/flat/299492857/,2024-03-12 08:02:00,2750000,1.0,"Ульяновская область, Ульяновск, р-н Заволжский, ул. 40-летия Победы, 5",54.37279145,48.593364015150165,Zavolzhskiy,Ulyanovsk Oblast,Ulyanovsk,улица 40-летия Победы,5,7,9,1,37.4,18.3,7.1,2.6,3.0,1979.0,3.0,2.0,1.0,1.0,1.0,1.0,11.0,3.0,22.0,11.0
https://ulyanovsk.cian.ru/sale/flat/292067071/,2024-03-18 10:10:00,3800000,1.0,"Ульяновская область, Ульяновск, р-н Железнодорожный, ул. Кирова, 6",54.3012236,48.382771,Железнодорожный район,Ulyanovsk Oblast,Ulyanovsk,улица Кирова,6,4,19,1,41.0,,12.0,,3.0,2014.0,3.0,,1.0,,2.0,1.0,4.0,6.0,16.0,10.0
https://ulyanovsk.cian.ru/sale/flat/299115449/,2024-03-19 21:01:00,2600000,1.0,"Ульяновская область, Ульяновск, р-н Ленинский, ул. Средний Венец, 7",54.3297707,48.40575246728355,Ленинский район,Ulyanovsk Oblast,Ulyanovsk,улица Средний Венец,7,2,5,1,30.9,17.7,5.9,2.5,2.0,1960.0,,1.0,1.0,1.0,,,2.0,6.0,9.0,5.0
https://ulyanovsk.cian.ru/sale/flat/297785509/,2024-03-19 20:32:00,3200000,1.0,"Ульяновская область, Ульяновск, р-н Заволжский, просп. Маршала Устинова, 7/14А",54.3889052,48.5695727,Zavolzhskiy,Ulyanovsk Oblast,Ulyanovsk,проспект Маршала Устинова,,17,17,1,33.3,16.0,8.0,,3.0,2021.0,3.0,,1.0,,,,4.0,,9.0,7.0
https://ulyanovsk.cian.ru/sale/flat/299765418/,2024-03-19 13:11:00,3149000,1.0,"Ульяновская область, Ульяновск, р-н Заволжский, просп. Созидателей, 114/2",54.3622507,48.5758501,Zavolzhskiy,Ulyanovsk Oblast,Ulyanovsk,проспект Созидателей,,6,9,1,24.0,12.0,5.0,2.7,2.0,2022.0,,1.0,1.0,,2.0,1.0,1.0,,7.0,2.0
https://ulyanovsk.cian.ru/sale/flat/296300248/,2024-01-11 12:08:00,3500000,1.0,"Ульяновская область, Ульяновск, р-н Ленинский, Панорамная ул., 75",54.346631650000006,48.34355361140165,Ленинский район,Ulyanovsk Oblast,Ulyanovsk,Панорамная улица,75,2,15,1,35.0,,,,3.0,2013.0,4.0,1.0,1.0,1.0,2.0,1.0,1.0,,5.0,2.0
https://ulyanovsk.cian.ru/sale/flat/289231495/,2024-10-02 13:12:00,3950000,1.0,"Ульяновская область, Ульяновск, р-н Заволжский, просп. Генерала Тюленева, 44",54.390425750000006,48.57836983818085,Zavolzhskiy,Ulyanovsk Oblast,Ulyanovsk,проспект Генерала Тюленева,44,8,14,1,42.7,17.0,11.0,2.7,2.0,2015.0,4.0,1.0,1.0,1.0,2.0,1.0,4.0,1.0,13.0,9.0
https://ulyanovsk.cian.ru/sale/flat/283998626/,2024-10-02 11:58:00,3200000,1.0,"Ульяновская область, Ульяновск, р-н Засвияжский, ул. 154-й Стрелковой дивизии, 10",54.2852171,48.26458469719701,Засвияжский район,Ulyanovsk Oblast,Ulyanovsk,улица 154-й Стрелковой Дивизии,10,3,3,1,35.0,18.0,11.0,,2.0,2016.0,4.0,,1.0,,,1.0,2.0,,5.0,2.0
https://ulyanovsk.cian.ru/sale/flat/299385294/,2024-03-07 22:03:00,3000000,1.0,"Ульяновская область, Ульяновск, р-н Засвияжский, ул. Ефремова, 135",54.27126895,48.274426477448046,Засвияжский район,Ulyanovsk Oblast,Ulyanovsk,улица Ефремова,135,1,10,1,39.0,,8.0,,2.0,1993.0,4.0,2.0,1.0,,1.0,1.0,7.0,2.0,19.0,7.0
https://ulyanovsk.cian.ru/sale/flat/299026508/,2024-02-27 18:40:00,3050000,1.0,"Ульяновская область, Ульяновск, р-н Засвияжский, просп. Хо Ши Мина, 32к3",54.2685449,48.29412290714756,Засвияжский район,Ulyanovsk Oblast,Ulyanovsk,проспект Хо Ши Мина,32 к3,4,7,1,39.0,17.0,9.0,,3.0,2009.0,4.0,2.0,1.0,1.0,2.0,1.0,9.0,1.0,27.0,13.0
https://ulyanovsk.cian.ru/sale/flat/299118367/,2024-03-18 10:40:00,3000000,1.0,"Ульяновская область, Ульяновск, р-н Засвияжский, Самарская ул., 12",54.2751725,48.29486339440939,Засвияжский район,Ulyanovsk Oblast,Ulyanovsk,Самарская улица,12,6,10,1,38.5,,7.5,,,1999.0,4.0,,1.0,,,1.0,13.0,2.0,37.0,21.0
https://ulyanovsk.cian.ru/sale/flat/296458658/,2024-03-18 09:01:00,2575000,1.0,"Ульяновская область, Ульяновск, р-н Железнодорожный, ул. Варейкиса, 28",54.25309505,48.32202356562037,Железнодорожный район,Ulyanovsk Oblast,Ulyanovsk,улица Варейкиса,28,3,9,1,35.0,18.0,7.0,2.6,2.0,1976.0,4.0,1.0,1.0,1.0,1.0,1.0,4.0,1.0,17.0,14.0
https://ulyanovsk.cian.ru/sale/flat/296773623/,2024-03-18 12:10:00,3780000,1.0,"Ульяновская область, Ульяновск, р-н Железнодорожный, ул. 12 Сентября, 85",54.30233085,48.37846527338617,Железнодорожный район,Ulyanovsk Oblast,Ulyanovsk,улица 12 Сентября,85,5,9,1,31.1,18.7,6.4,2.7,2.0,1973.0,,2.0,1.0,,1.0,1.0,5.0,6.0,16.0,12.0
https://ulyanovsk.cian.ru/sale/flat/298927784/,2024-02-25 16:50:00,3400000,1.0,"Ульяновская область, Ульяновск, р-н Засвияжский, ул. Генерала Мельникова, 6",54.2791738,48.2707447,Засвияжский район,Ulyanovsk Oblast,Ulyanovsk,улица Генерала Мельникова,6,8,9,1,36.0,17.5,7.7,2.5,2.0,2014.0,4.0,2.0,1.0,1.0,2.0,1.0,7.0,2.0,12.0,9.0
https://ulyanovsk.cian.ru/sale/flat/294699247/,2024-03-18 23:24:00,3700000,1.0,"Ульяновская область, Ульяновск, Панорамная ул., 81",54.346083,48.344415915909096,Ленинский район,Ulyanovsk Oblast,Ulyanovsk,Панорамная улица,81,13,16,1,35.1,,7.5,,3.0,2019.0,4.0,,1.0,,1.0,1.0,2.0,,5.0,2.0
https://ulyanovsk.cian.ru/sale/flat/297966450/,2024-03-18 23:26:00,3700000,1.0,"Ульяновская область, Ульяновск, р-н Засвияжский, Фруктовая ул., 1",54.27837165,48.31108258998175,Засвияжский район,Ulyanovsk Oblast,Ulyanovsk,Фруктовая улица,1,9,10,1,35.3,,5.0,,2.0,1987.0,4.0,,1.0,,,1.0,9.0,2.0,21.0,8.0
https://ulyanovsk.cian.ru/sale/flat/299530389/,2024-03-17 23:40:00,4000000,1.0,"Ульяновская область, Ульяновск, р-н Заволжский, просп. Ленинского Комсомола, 18",54.3795894,48.58946784516534,Zavolzhskiy,Ulyanovsk Oblast,Ulyanovsk,проспект Ленинского Комсомола,18,7,9,1,37.0,,9.0,,3.0,1984.0,4.0,,1.0,,2.0,1.0,16.0,3.0,25.0,19.0
https://ulyanovsk.cian.ru/sale/flat/292293730/,2024-03-18 10:10:00,3300000,1.0,"Ульяновская область, Ульяновск, р-н Засвияжский, ул. Шолмова, 47",54.2636857,48.29793816908855,Засвияжский район,Ulyanovsk Oblast,Ulyanovsk,улица Шолмова,47,5,5,1,39.8,,11.5,,2.0,1998.0,4.0,,1.0,,,1.0,3.0,1.0,13.0,4.0
https://ulyanovsk.cian.ru/sale/flat/299257533/,2024-03-04 22:56:00,3199999,1.0,"Ульяновская область, Ульяновск, р-н Заволжский, просп. Маршала Устинова, 7/14А",54.3889052,48.5695727,Zavolzhskiy,Ulyanovsk Oblast,Ulyanovsk,проспект Маршала Устинова,,6,18,1,32.0,,15.0,2.8,2.0,2021.0,3.0,1.0,1.0,1.0,2.0,,4.0,,9.0,7.0
https://ulyanovsk.cian.ru/sale/flat/299301499/,2024-03-18 23:25:00,3290000,1.0,"Ульяновская область, Ульяновск, р-н Ленинский, ул. Марата, 6",54.323085,48.3922812487455,Ленинский район,Ulyanovsk Oblast,Ulyanovsk,улица Марата,6,1,9,1,30.9,,7.0,,2.0,1975.0,1.0,,1.0,,2.0,1.0,6.0,7.0,18.0,8.0
https://ulyanovsk.cian.ru/sale/flat/299342787/,2024-03-06 21:31:00,3950000,1.0,"Ульяновская область, Ульяновск, р-н Засвияжский, ул. Шигаева, 21к1",54.2677309,48.2726865218509,Засвияжский район,Ulyanovsk Oblast,Ulyanovsk,улица Шигаева,21 к1,8,10,1,36.0,18.0,8.5,2.65,2.0,2014.0,4.0,2.0,1.0,1.0,1.0,1.0,6.0,1.0,11.0,6.0
https://ulyanovsk.cian.ru/sale/flat/298923537/,2024-03-08 20:05:00,2800000,1.0,"Ульяновская область, Ульяновск, р-н Ленинский, просп. Нариманова, 83",54.357408750000005,48.351001749589045,Ленинский район,Ulyanovsk Oblast,Ulyanovsk,проспект Нариманова,83,1,10,1,35.0,9.0,16.4,,3.0,1986.0,,2.0,1.0,1.0,1.0,1.0,1.0,1.0,8.0,5.0
https://ulyanovsk.cian.ru/sale/flat/296615113/,2024-03-18 10:10:00,2650000,1.0,"Ульяновская область, Ульяновск, р-н Железнодорожный, Хрустальная ул., 8А",54.26862305,48.3340720100712,Железнодорожный район,Ulyanovsk Oblast,Ulyanovsk,Хрустальная улица,8А,4,5,1,38.6,,8.6,,3.0,1994.0,5.0,,1.0,,,1.0,7.0,3.0,10.0,7.0
https://ulyanovsk.cian.ru/sale/flat/296367229/,2024-03-18 23:25:00,2850000,1.0,"Ульяновская область, Ульяновск, р-н Засвияжский, ул. 154-й Стрелковой дивизии, 38",54.28629305,48.26120147883727,Засвияжский район,Ulyanovsk Oblast,Ulyanovsk,улица 154-й Стрелковой Дивизии,38,3,3,1,32.7,,7.8,,3.0,2017.0,4.0,,1.0,,,1.0,1.0,,5.0,2.0
https://ulyanovsk.cian.ru/sale/flat/291915415/,2024-03-17 15:41:00,2750000,1.0,"Ульяновская область, Ульяновск, р-н Ленинский, Верхнеполевая ул., 1/16",54.3268988,48.3858011,Ленинский район,Ulyanovsk Oblast,Ulyanovsk,Верхнеполевая улица,,3,5,1,30.2,,,,3.0,1967.0,,,1.0,,,,5.0,2.0,17.0,5.0
https://ulyanovsk.cian.ru/sale/flat/298095995/,2024-03-18 19:07:00,2500000,1.0,"Ульяновская область, Ульяновск, р-н Засвияжский, ул. Минина, 5",54.29322365,48.31885400100235,Засвияжский район,Ulyanovsk Oblast,Ulyanovsk,улица Минина,5,3,5,1,31.3,18.0,6.0,,3.0,1967.0,4.0,2.0,,1.0,,1.0,6.0,4.0,12.0,11.0
https://ulyanovsk.cian.ru/sale/flat/298373952/,2024-03-10 12:23:00,2900000,1.0,"Ульяновская область, Ульяновск, р-н Ленинский, бул. Архитекторов, 15",54.3477986,48.3375763911621,Ленинский район,Ulyanovsk Oblast,Ulyanovsk,бульвар Архитекторов,15,6,9,1,30.0,,,,,2014.0,4.0,,,,,,1.0,1.0,4.0,3.0
https://ulyanovsk.cian.ru/sale/flat/299745759/,2024-03-18 23:08:00,2490000,1.0,"Ульяновская область, Ульяновск, р-н Железнодорожный, Локомотивная ул., 68",54.2734223,48.3290251,Железнодорожный район,Ulyanovsk Oblast,Ulyanovsk,Локомотивная улица,68,3,5,1,32.7,,7.0,,2.0,1999.0,1.0,,1.0,,,1.0,3.0,3.0,5.0,4.0
https://ulyanovsk.cian.ru/sale/flat/294932263/,2024-03-18 10:10:00,3600000,1.0,"Ульяновская область, Ульяновск, р-н Засвияжский, Камышинская ул., 43В",54.27916745,48.28591605589098,Засвияжский район,Ulyanovsk Oblast,Ulyanovsk,Камышинская улица,43В,4,10,1,38.0,,10.5,,2.0,2011.0,4.0,,1.0,,,1.0,11.0,2.0,32.0,19.0
https://ulyanovsk.cian.ru/sale/flat/297806488/,2024-01-28 12:00:00,2550000,1.0,"Ульяновская область, Ульяновск, р-н Засвияжский, ул. Рябикова, 45",54.27882265,48.29552089425286,Засвияжский район,Ulyanovsk Oblast,Ulyanovsk,улица Рябикова,45,1,5,1,37.0,18.0,7.5,,3.0,1981.0,4.0,2.0,1.0,,,1.0,14.0,4.0,37.0,23.0
https://ulyanovsk.cian.ru/sale/flat/296735444/,2024-03-19 10:57:00,3999000,1.0,"Ульяновская область, Ульяновск, р-н Заволжский, просп. Маршала Устинова, 48",54.3889052,48.5695727,Zavolzhskiy,Ulyanovsk Oblast,Ulyanovsk,проспект Маршала Устинова,,2,5,1,40.0,17.7,10.1,,,2023.0,,,1.0,,,1.0,4.0,,9.0,7.0
https://ulyanovsk.cian.ru/sale/flat/298095751/,2024-03-18 09:55:00,3000000,1.0,"Ульяновская область, Ульяновск, р-н Засвияжский, ул. Рябикова, 85А",54.26821725,48.28520382704278,Засвияжский район,Ulyanovsk Oblast,Ulyanovsk,улица Рябикова,85А,7,10,1,35.6,,7.2,,3.0,1990.0,4.0,,1.0,,1.0,1.0,9.0,1.0,24.0,9.0
https://ulyanovsk.cian.ru/sale/flat/299191461/,2024-03-08 04:39:00,2150000,1.0,"Ульяновская область, Ульяновск, р-н Засвияжский, ул. Рябикова, 9",54.2900136,48.30839514724858,Засвияжский район,Ulyanovsk Oblast,Ulyanovsk,улица Рябикова,9,3,5,1,30.2,,,,3.0,1963.0,1.0,,1.0,,,,8.0,4.0,20.0,12.0
https://ulyanovsk.cian.ru/sale/flat/293052085/,2024-03-18 10:10:00,3200000,1.0,"Ульяновская область, Ульяновск, р-н Засвияжский, Промышленная ул., 95",54.28303715,48.3157795248855,Засвияжский район,Ulyanovsk Oblast,Ulyanovsk,Промышленная улица,95,9,10,1,35.6,,8.0,,2.0,2010.0,,,1.0,,2.0,1.0,9.0,2.0,18.0,10.0
https://ulyanovsk.cian.ru/sale/flat/285649586/,2024-03-19 19:55:00,2299000,1.0,"Ульяновская область, Ульяновск, р-н Ленинский, ул. Розы Люксембург, 20",54.3463301,48.38703211387883,Ленинский район,Ulyanovsk Oblast,Ulyanovsk,улица Розы Люксембург,20,4,4,1,30.0,16.7,5.6,2.5,3.0,1963.0,1.0,1.0,,,,,4.0,1.0,10.0,5.0
https://ulyanovsk.cian.ru/sale/flat/298810835/,2024-03-16 10:06:00,2670000,1.0,"Ульяновская область, Ульяновск, Кузоватовская ул., 27",54.28281435,48.29283889109488,Засвияжский район,Ulyanovsk Oblast,Ulyanovsk,Кузоватовская улица,27,7,9,1,32.24,17.6,6.9,,2.0,1974.0,1.0,1.0,1.0,1.0,1.0,1.0,15.0,3.0,33.0,24.0
https://ulyanovsk.cian.ru/sale/flat/298535953/,2024-03-18 23:25:00,2999000,1.0,"Ульяновская область, Ульяновск, р-н Засвияжский, Отрадная ул., 79к4",54.26857525,48.28014350280639,Засвияжский район,Ulyanovsk Oblast,Ulyanovsk,Отрадная улица,79 к4,9,10,1,33.4,,8.0,,3.0,2008.0,4.0,,1.0,,1.0,1.0,7.0,1.0,21.0,9.0
https://ulyanovsk.cian.ru/sale/flat/299076499/,2024-03-18 10:40:00,3000000,1.0,"Ульяновская область, Ульяновск, р-н Ленинский, Ипподромная ул., 4Б",54.36355335,48.35248398084629,Ленинский район,Ulyanovsk Oblast,Ulyanovsk,Ипподромная улица,4Б,7,19,1,35.3,,7.0,,2.0,2018.0,,,1.0,,2.0,1.0,,2.0,2.0,3.0
https://ulyanovsk.cian.ru/sale/flat/294780478/,2024-03-07 04:45:00,3150000,1.0,"Ульяновская область, Ульяновск, р-н Засвияжский, ул. 154-й Стрелковой дивизии, 26",54.28598235,48.262560467656535,Засвияжский район,Ulyanovsk Oblast,Ulyanovsk,улица 154-й Стрелковой Дивизии,26,1,3,1,38.0,16.0,12.3,2.8,3.0,2016.0,4.0,1.0,1.0,1.0,,1.0,1.0,,5.0,2.0
https://ulyanovsk.cian.ru/sale/flat/295817716/,2024-03-18 10:10:00,2870000,1.0,"Ульяновская область, Ульяновск, р-н Засвияжский, Отрадная ул., 79к3",54.2687045,48.2794893,Засвияжский район,Ulyanovsk Oblast,Ulyanovsk,Отрадная улица,79 к3,10,10,1,33.7,,8.4,,3.0,2008.0,4.0,,1.0,,1.0,1.0,7.0,1.0,23.0,8.0
https://ulyanovsk.cian.ru/sale/flat/293724264/,2024-03-18 23:24:00,2290000,1.0,"Ульяновская область, Ульяновск, р-н Засвияжский, Октябрьская ул., 21А",54.2998812,48.32613727925771,Засвияжский район,Ulyanovsk Oblast,Ulyanovsk,Октябрьская улица,21А,8,9,1,29.1,,7.4,,3.0,1969.0,,,1.0,,1.0,1.0,11.0,2.0,12.0,10.0
https://ulyanovsk.cian.ru/sale/flat/299086720/,2024-03-18 09:08:00,3450000,1.0,"Ульяновская область, Ульяновск, р-н Заволжский, ул. Якурнова, 20",54.38365445,48.56406739857432,Zavolzhskiy,Ulyanovsk Oblast,Ulyanovsk,улица Якурнова,20,3,9,1,35.1,18.0,10.2,2.7,2.0,2013.0,5.0,2.0,,,1.0,,5.0,,8.0,7.0
https://ulyanovsk.cian.ru/sale/flat/298752358/,2024-03-18 12:40:00,3950000,1.0,"Ульяновская область, Ульяновск, Отрадная ул., 14к1",54.26524655,48.301104913084274,Засвияжский район,Ulyanovsk Oblast,Ulyanovsk,Отрадная улица,14 к1,8,9,1,49.0,18.0,12.0,,3.0,2015.0,1.0,,1.0,,,1.0,3.0,1.0,15.0,7.0
https://ulyanovsk.cian.ru/sale/flat/292434346/,2024-02-28 20:54:00,2500000,1.0,"Ульяновская область, Ульяновск, р-н Ленинский, пер. 2-й Пархоменко, 33",54.33613185,48.36467111394201,Ленинский район,Ulyanovsk Oblast,Ulyanovsk,2-й переулок Пархоменко,33,2,5,1,33.0,18.0,7.0,3.0,2.0,1994.0,4.0,2.0,1.0,1.0,,1.0,2.0,1.0,5.0,
https://ulyanovsk.cian.ru/sale/flat/299745762/,2024-03-18 23:09:00,2350000,1.0,"Ульяновская область, Ульяновск, р-н Железнодорожный, ул. Строителей, 4",54.2875713,48.368705377756015,Железнодорожный район,Ulyanovsk Oblast,Ulyanovsk,улица Строителей,4,6,9,1,32.0,,7.0,,3.0,1973.0,1.0,,1.0,,2.0,1.0,,1.0,5.0,3.0
https://ulyanovsk.cian.ru/sale/flat/298758429/,2024-03-18 23:14:00,2690000,1.0,"Ульяновская область, Ульяновск, р-н Заволжский, Ленинградская ул., 32",54.3258931,48.46999064453699,Zavolzhskiy,Ulyanovsk Oblast,Ulyanovsk,Ленинградская улица,32,8,9,1,34.8,16.4,9.0,,2.0,1997.0,,,1.0,,2.0,1.0,2.0,,6.0,2.0
https://ulyanovsk.cian.ru/sale/flat/298535973/,2024-03-18 23:26:00,3150000,1.0,"Ульяновская область, Ульяновск, р-н Ленинский, Ипподромная ул., 4Б",54.36355335,48.35248398084629,Ленинский район,Ulyanovsk Oblast,Ulyanovsk,Ипподромная улица,4Б,4,19,1,34.6,,10.6,,2.0,2018.0,,,1.0,,2.0,1.0,,2.0,2.0,3.0
https://ulyanovsk.cian.ru/sale/flat/290131198/,2024-03-13 16:43:00,2670000,1.0,"Ульяновская область, Ульяновск, ул. Варейкиса, 28",54.25309505,48.32202356562037,Железнодорожный район,Ulyanovsk Oblast,Ulyanovsk,улица Варейкиса,28,8,9,1,35.5,18.2,7.0,2.6,3.0,1976.0,4.0,,1.0,1.0,1.0,1.0,4.0,1.0,17.0,14.0
https://ulyanovsk.cian.ru/sale/flat/297270026/,2024-03-16 23:03:00,2800000,1.0,"Ульяновская область, Ульяновск, р-н Засвияжский, ул. 154-й Стрелковой дивизии, 34",54.2859867,48.26148118342181,Засвияжский район,Ulyanovsk Oblast,Ulyanovsk,улица 154-й Стрелковой Дивизии,34,3,3,1,30.0,16.1,7.1,,2.0,2017.0,3.0,,1.0,1.0,,1.0,1.0,,5.0,2.0
https://ulyanovsk.cian.ru/sale/flat/298667209/,2024-03-16 09:40:00,2700000,1.0,"Ульяновская область, Ульяновск, р-н Заволжский, Заречная ул., 11",54.321079350000005,48.47260703554496,Zavolzhskiy,Ulyanovsk Oblast,Ulyanovsk,Заречная улица,11,2,9,1,30.5,,9.0,,3.0,2015.0,,,1.0,,2.0,1.0,1.0,1.0,5.0,1.0
https://ulyanovsk.cian.ru/sale/flat/299207561/,2024-03-19 18:26:00,3150000,1.0,"Ульяновская область, Ульяновск, р-н Железнодорожный, ул. Кирова, 8",54.3002129,48.3818817,Железнодорожный район,Ulyanovsk Oblast,Ulyanovsk,улица Кирова,8,1,5,1,32.1,19.0,6.0,,,1966.0,1.0,,,,,,3.0,5.0,17.0,10.0
https://ulyanovsk.cian.ru/sale/flat/299765420/,2024-03-19 13:11:00,2600000,1.0,"Ульяновская область, Ульяновск, р-н Ленинский, Ипподромная ул., 4А",54.3625016,48.3524448,Ленинский район,Ulyanovsk Oblast,Ulyanovsk,Ипподромная улица,4А,13,24,1,39.2,17.0,11.0,2.7,3.0,2017.0,3.0,1.0,1.0,,,1.0,,2.0,2.0,3.0
https://ulyanovsk.cian.ru/sale/flat/286667767/,2024-03-18 22:40:00,2700000,1.0,"Ульяновская область, Ульяновск, р-н Засвияжский, Самарская ул., 15",54.27446185,48.29782555342939,Засвияжский район,Ulyanovsk Oblast,Ulyanovsk,Самарская улица,15,6,6,1,34.0,15.0,10.0,,3.0,2000.0,,,1.0,,,1.0,11.0,1.0,35.0,20.0
https://ulyanovsk.cian.ru/sale/flat/299385900/,2024-03-18 10:10:00,3100000,1.0,"Ульяновская область, Ульяновск, р-н Заволжский, просп. Созидателей, 82",54.36734005,48.584126044830114,Zavolzhskiy,Ulyanovsk Oblast,Ulyanovsk,проспект Созидателей,82,1,10,1,37.7,,10.0,,2.0,1994.0,4.0,,1.0,,2.0,1.0,6.0,1.0,16.0,6.0
https://ulyanovsk.cian.ru/sale/flat/294380126/,2024-03-18 10:10:00,3100000,1.0,"Ульяновская область, Ульяновск, р-н Заволжский, просп. Созидателей, 114/2к1",54.3575614,48.5647736,Zavolzhskiy,Ulyanovsk Oblast,Ulyanovsk,проспект Созидателей,,5,9,1,37.2,21.0,6.0,,,2022.0,,,1.0,,2.0,1.0,,,4.0,1.0
https://ulyanovsk.cian.ru/sale/flat/299257312/,2024-03-18 10:10:00,3550000,1.0,"Ульяновская область, Ульяновск, ул. Якурнова, 26",54.384204,48.563332,Zavolzhskiy,Ulyanovsk Oblast,Ulyanovsk,улица Якурнова,26,3,9,1,35.7,18.5,8.2,,2.0,2013.0,5.0,,1.0,,2.0,1.0,5.0,,8.0,7.0
https://ulyanovsk.cian.ru/sale/flat/298562362/,2024-03-19 15:55:00,3480000,1.0,"Ульяновская область, Ульяновск, р-н Засвияжский, ул. Юго-западная, 11",54.2793452,48.2631433,Засвияжский район,Ulyanovsk Oblast,Ulyanovsk,Юго-Западная улица,11,14,19,1,38.2,11.0,15.0,3.0,,2023.0,,1.0,,,2.0,,2.0,,8.0,3.0
https://ulyanovsk.cian.ru/sale/flat/286304943/,2024-03-19 12:40:00,3150000,1.0,"Ульяновская область, Ульяновск, р-н Заволжский, просп. Созидателей, 114/2",54.3751879,48.6050822,Zavolzhskiy,Ulyanovsk Oblast,Ulyanovsk,проспект Созидателей,,7,9,1,32.7,15.0,9.3,2.7,,2022.0,,2.0,1.0,,1.0,1.0,7.0,3.0,16.0,10.0
https://ulyanovsk.cian.ru/sale/flat/292114191/,2024-03-18 23:22:00,3300000,1.0,"Ульяновская область, Ульяновск, р-н Заволжский, ул. 40-летия Победы, 26",54.36961475,48.58119597893831,Zavolzhskiy,Ulyanovsk Oblast,Ulyanovsk,улица 40-летия Победы,26,6,9,1,37.0,,9.0,,3.0,1982.0,4.0,,1.0,,2.0,1.0,9.0,2.0,18.0,11.0
https://ulyanovsk.cian.ru/sale/flat/285629033/,2024-03-15 11:48:00,2700000,1.0,"Ульяновская область, Ульяновск, р-н Засвияжский, ул. Аблукова, 107",54.3083786,48.35433089880337,Засвияжский район,Ulyanovsk Oblast,Ulyanovsk,улица Аблукова,,5,9,1,30.0,18.0,7.0,3.0,3.0,,1.0,1.0,1.0,1.0,1.0,,3.0,1.0,11.0,9.0
https://ulyanovsk.cian.ru/sale/flat/298821423/,2024-03-19 16:58:00,3600000,1.0,"Ульяновская область, Ульяновск, р-н Засвияжский, Автозаводская ул., 28",54.29789625,48.316418229291216,Засвияжский район,Ulyanovsk Oblast,Ulyanovsk,Автозаводская улица,28,4,9,1,39.4,12.3,9.8,2.7,3.0,2014.0,,1.0,,,,,7.0,3.0,14.0,11.0
https://ulyanovsk.cian.ru/sale/flat/299633551/,2024-03-19 12:40:00,3600000,1.0,"Ульяновская область, Ульяновск, р-н Ленинский, ул. Федерации, 6",54.3207394,48.39495988037817,Ленинский район,Ulyanovsk Oblast,Ulyanovsk,улица Федерации,6,2,3,1,35.0,19.0,6.0,2.8,,1917.0,1.0,2.0,,,,,6.0,8.0,16.0,6.0
https://ulyanovsk.cian.ru/sale/flat/287044227/,2024-03-18 04:17:00,2750000,1.0,"Ульяновская область, Ульяновск, р-н Засвияжский, Кузоватовская ул., 40А",54.28072765,48.28931454660836,Засвияжский район,Ulyanovsk Oblast,Ulyanovsk,Кузоватовская улица,40А,5,5,1,32.3,19.0,5.7,2.48,3.0,1996.0,1.0,,1.0,,,1.0,11.0,3.0,35.0,21.0
https://ulyanovsk.cian.ru/sale/flat/298234414/,2024-03-18 23:26:00,2750000,1.0,"Ульяновская область, Ульяновск, р-н Заволжский, Оренбургская ул., 54",54.34985895,48.52886044180699,Zavolzhskiy,Ulyanovsk Oblast,Ulyanovsk,Оренбургская улица,54,6,9,1,35.6,17.7,8.8,,3.0,1985.0,1.0,,1.0,,2.0,1.0,6.0,,7.0,5.0
https://ulyanovsk.cian.ru/sale/flat/299244134/,2024-03-18 10:10:00,3290000,1.0,"Ульяновская область, Ульяновск, р-н Заволжский, просп. Столыпина, 2",54.3643176,48.56786517718703,Zavolzhskiy,Ulyanovsk Oblast,Ulyanovsk,проспект Столыпина,2,1,3,1,37.3,16.7,11.3,,3.0,2023.0,,,1.0,,,1.0,1.0,,5.0,3.0
https://ulyanovsk.cian.ru/sale/flat/296853285/,2024-02-07 13:37:00,2750000,1.0,"Ульяновская область, Ульяновск, р-н Заволжский, ул. Гоголя, 10",54.3383752,48.541162988133664,Zavolzhskiy,Ulyanovsk Oblast,Ulyanovsk,улица Гоголя,10,3,9,1,39.0,19.5,10.5,2.65,,1989.0,4.0,2.0,1.0,,1.0,1.0,3.0,1.0,4.0,4.0
https://ulyanovsk.cian.ru/sale/flat/294973988/,2024-03-18 09:55:00,3050000,1.0,"Ульяновская область, Ульяновск, р-н Засвияжский, УКСМ поселок, 5",54.2620252,48.275913679088575,Засвияжский район,Ulyanovsk Oblast,Ulyanovsk,улица Посёлок УКСМ,5,8,9,1,37.9,,11.0,,2.0,2013.0,4.0,,1.0,,2.0,1.0,2.0,,7.0,1.0
https://ulyanovsk.cian.ru/sale/flat/299257309/,2024-03-18 10:10:00,2650000,1.0,"Ульяновская область, Ульяновск, р-н Ленинский, ул. Ватутина, 26",54.3418913,48.37592580522388,Ленинский район,Ulyanovsk Oblast,Ulyanovsk,улица Ватутина,26,2,3,1,29.3,,6.0,,2.0,1962.0,1.0,,1.0,,,1.0,5.0,2.0,10.0,5.0
https://ulyanovsk.cian.ru/sale/flat/294312509/,2024-02-12 14:39:00,3450000,1.0,"Ульяновская область, Ульяновск, р-н Засвияжский, Самарская ул., 27",54.269337500000006,48.29137832874415,Засвияжский район,Ulyanovsk Oblast,Ulyanovsk,Самарская улица,27,5,5,1,38.6,18.0,14.0,,3.0,2008.0,4.0,2.0,1.0,1.0,1.0,1.0,10.0,1.0,32.0,13.0
https://ulyanovsk.cian.ru/sale/flat/286459407/,2024-10-02 12:04:00,2500000,1.0,"Ульяновская область, Ульяновск, р-н Железнодорожный, Профсоюзная ул., 38",54.2481904,48.30677281966683,Железнодорожный район,Ulyanovsk Oblast,Ulyanovsk,Профсоюзная улица,38,1,5,1,41.0,19.5,9.4,,1.0,2003.0,1.0,1.0,1.0,,,1.0,1.0,1.0,3.0,2.0
https://ulyanovsk.cian.ru/sale/flat/295378910/,2024-03-18 10:10:00,2050000,1.0,"Ульяновская область, Ульяновск, р-н Засвияжский, просп. 50-летия ВЛКСМ, 21",54.3009806,48.3294958,Засвияжский район,Ulyanovsk Oblast,Ulyanovsk,проспект 50-летия ВЛКСМ,21,2,6,1,30.0,,6.0,,3.0,1964.0,1.0,,1.0,,,,10.0,2.0,14.0,10.0
https://ulyanovsk.cian.ru/sale/flat/299385900/,2024-03-18 10:10:00,3100000,1.0,"Ульяновская область, Ульяновск, р-н Заволжский, просп. Созидателей, 82",54.36734005,48.584126044830114,Zavolzhskiy,Ulyanovsk Oblast,Ulyanovsk,проспект Созидателей,82,1,10,1,37.7,,10.0,,2.0,1994.0,4.0,,1.0,,2.0,1.0,6.0,1.0,16.0,6.0
https://ulyanovsk.cian.ru/sale/flat/297813676/,2024-02-27 18:45:00,3800000,1.0,"Ульяновская область, Ульяновск, р-н Засвияжский, Отрадная ул., 14к1",54.26524655,48.301104913084274,Засвияжский район,Ulyanovsk Oblast,Ulyanovsk,Отрадная улица,14 к1,9,10,1,40.6,,,,,2015.0,1.0,,,,1.0,,3.0,1.0,15.0,7.0
https://ulyanovsk.cian.ru/sale/flat/293825900/,2024-03-18 10:10:00,2350000,1.0,"Ульяновская область, Ульяновск, р-н Ленинский, Уютная ул., 12",54.3657817,48.37663916847049,Ленинский район,Ulyanovsk Oblast,Ulyanovsk,Уютная улица,12,1,4,1,31.7,16.4,9.4,,2.0,1995.0,,,1.0,,,,,1.0,3.0,3.0
https://ulyanovsk.cian.ru/sale/flat/294380126/,2024-03-18 10:10:00,3100000,1.0,"Ульяновская область, Ульяновск, р-н Заволжский, просп. Созидателей, 114/2к1",54.3575614,48.5647736,Zavolzhskiy,Ulyanovsk Oblast,Ulyanovsk,проспект Созидателей,,5,9,1,37.2,21.0,6.0,,,2022.0,,,1.0,,2.0,1.0,,,4.0,1.0
https://ulyanovsk.cian.ru/sale/flat/298276254/,2024-03-17 09:05:00,2550000,1.0,"Ульяновская область, Ульяновск, р-н Железнодорожный, Хрустальная ул., 8А",54.26862305,48.3340720100712,Железнодорожный район,Ulyanovsk Oblast,Ulyanovsk,Хрустальная улица,8А,4,5,1,36.88,19.5,7.9,2.5,2.0,1994.0,5.0,2.0,1.0,,,1.0,7.0,3.0,10.0,7.0
https://ulyanovsk.cian.ru/sale/flat/299257312/,2024-03-18 10:10:00,3550000,1.0,"Ульяновская область, Ульяновск, ул. Якурнова, 26",54.384204,48.563332,Zavolzhskiy,Ulyanovsk Oblast,Ulyanovsk,улица Якурнова,26,3,9,1,35.7,18.5,8.2,,2.0,2013.0,5.0,,1.0,,2.0,1.0,5.0,,8.0,7.0
https://ulyanovsk.cian.ru/sale/flat/298562362/,2024-03-19 15:55:00,3480000,1.0,"Ульяновская область, Ульяновск, р-н Засвияжский, ул. Юго-западная, 11",54.2793452,48.2631433,Засвияжский район,Ulyanovsk Oblast,Ulyanovsk,Юго-Западная улица,11,14,19,1,38.2,11.0,15.0,3.0,,2023.0,,1.0,,,2.0,,2.0,,8.0,3.0
https://ulyanovsk.cian.ru/sale/flat/297245019/,2024-01-17 05:18:00,3100000,1.0,"Ульяновская область, Ульяновск, р-н Заволжский, просп. Столыпина, 12",54.3652517,48.56985412384522,Zavolzhskiy,Ulyanovsk Oblast,Ulyanovsk,проспект Столыпина,12,2,3,1,32.0,16.0,9.0,2.6,2.0,2020.0,1.0,,1.0,,,1.0,1.0,,8.0,3.0
https://ulyanovsk.cian.ru/sale/flat/286304943/,2024-03-19 12:40:00,3150000,1.0,"Ульяновская область, Ульяновск, р-н Заволжский, просп. Созидателей, 114/2",54.3751879,48.6050822,Zavolzhskiy,Ulyanovsk Oblast,Ulyanovsk,проспект Созидателей,,7,9,1,32.7,15.0,9.3,2.7,,2022.0,,2.0,1.0,,1.0,1.0,7.0,3.0,16.0,10.0
https://ulyanovsk.cian.ru/sale/flat/292114191/,2024-03-18 23:22:00,3300000,1.0,"Ульяновская область, Ульяновск, р-н Заволжский, ул. 40-летия Победы, 26",54.36961475,48.58119597893831,Zavolzhskiy,Ulyanovsk Oblast,Ulyanovsk,улица 40-летия Победы,26,6,9,1,37.0,,9.0,,3.0,1982.0,4.0,,1.0,,2.0,1.0,9.0,2.0,18.0,11.0
https://ulyanovsk.cian.ru/sale/flat/298807160/,2024-03-06 20:33:00,4000000,1.0,"Ульяновская область, Ульяновск, р-н Заволжский, Новосондецкий бул., 9",54.3776355,48.58530718711485,Zavolzhskiy,Ulyanovsk Oblast,Ulyanovsk,Новосондецкий бульвар,9,13,16,1,39.9,17.0,9.2,,2.0,1988.0,,2.0,1.0,,2.0,1.0,16.0,3.0,26.0,17.0
https://ulyanovsk.cian.ru/sale/flat/298821423/,2024-03-19 16:58:00,3600000,1.0,"Ульяновская область, Ульяновск, р-н Засвияжский, Автозаводская ул., 28",54.29789625,48.316418229291216,Засвияжский район,Ulyanovsk Oblast,Ulyanovsk,Автозаводская улица,28,4,9,1,39.4,12.3,9.8,2.7,3.0,2014.0,,1.0,,,,,7.0,3.0,14.0,11.0
https://ulyanovsk.cian.ru/sale/flat/299633551/,2024-03-19 12:40:00,3600000,1.0,"Ульяновская область, Ульяновск, р-н Ленинский, ул. Федерации, 6",54.3207394,48.39495988037817,Ленинский район,Ulyanovsk Oblast,Ulyanovsk,улица Федерации,6,2,3,1,35.0,19.0,6.0,2.8,,1917.0,1.0,2.0,,,,,6.0,8.0,16.0,6.0
https://ulyanovsk.cian.ru/sale/flat/297534328/,2024-03-19 02:40:00,2495000,1.0,"Ульяновская область, Ульяновск, ул. Рябикова, 59",54.27577845,48.29398035155724,Засвияжский район,Ulyanovsk Oblast,Ulyanovsk,улица Рябикова,59,5,5,1,33.64,18.0,6.0,,2.0,1987.0,1.0,1.0,1.0,1.0,,1.0,14.0,2.0,38.0,23.0
https://ulyanovsk.cian.ru/sale/flat/298234414/,2024-03-18 23:26:00,2750000,1.0,"Ульяновская область, Ульяновск, р-н Заволжский, Оренбургская ул., 54",54.34985895,48.52886044180699,Zavolzhskiy,Ulyanovsk Oblast,Ulyanovsk,Оренбургская улица,54,6,9,1,35.6,17.7,8.8,,3.0,1985.0,1.0,,1.0,,2.0,1.0,6.0,,7.0,5.0
https://ulyanovsk.cian.ru/sale/flat/299244134/,2024-03-18 10:10:00,3290000,1.0,"Ульяновская область, Ульяновск, р-н Заволжский, просп. Столыпина, 2",54.3643176,48.56786517718703,Zavolzhskiy,Ulyanovsk Oblast,Ulyanovsk,проспект Столыпина,2,1,3,1,37.3,16.7,11.3,,3.0,2023.0,,,1.0,,,1.0,1.0,,5.0,3.0
https://ulyanovsk.cian.ru/sale/flat/298517112/,2024-03-16 09:49:00,3280000,1.0,"Ульяновская область, Ульяновск, р-н Заволжский, просп. Ленинского Комсомола, 42",54.3737733,48.5768643,Zavolzhskiy,Ulyanovsk Oblast,Ulyanovsk,проспект Ленинского Комсомола,42,9,9,1,37.0,,,,2.0,1985.0,4.0,2.0,1.0,1.0,1.0,1.0,11.0,,22.0,13.0
https://ulyanovsk.cian.ru/sale/flat/295478341/,2024-03-18 10:10:00,2600000,1.0,"Ульяновская область, Ульяновск, р-н Засвияжский, ул. Рябикова, 77",54.2706558,48.28718956791058,Засвияжский район,Ulyanovsk Oblast,Ulyanovsk,улица Рябикова,77,9,9,1,33.0,,6.0,,3.0,1982.0,4.0,,1.0,,2.0,1.0,11.0,1.0,34.0,12.0
https://ulyanovsk.cian.ru/sale/flat/299116929/,2024-02-29 22:21:00,2550000,1.0,"Ульяновская область, Ульяновск, р-н Засвияжский, ул. Полбина, 46",54.30265435,48.3449251885299,Засвияжский район,Ulyanovsk Oblast,Ulyanovsk,улица Полбина,46,6,9,1,33.0,18.6,5.6,,,1970.0,1.0,1.0,1.0,1.0,1.0,1.0,9.0,1.0,14.0,8.0
https://ulyanovsk.cian.ru/sale/flat/294973988/,2024-03-18 09:55:00,3050000,1.0,"Ульяновская область, Ульяновск, р-н Засвияжский, УКСМ поселок, 5",54.2620252,48.275913679088575,Засвияжский район,Ulyanovsk Oblast,Ulyanovsk,улица Посёлок УКСМ,5,8,9,1,37.9,,11.0,,2.0,2013.0,4.0,,1.0,,2.0,1.0,2.0,,7.0,1.0
https://ulyanovsk.cian.ru/sale/flat/294312509/,2024-02-12 14:39:00,3450000,1.0,"Ульяновская область, Ульяновск, р-н Засвияжский, Самарская ул., 27",54.269337500000006,48.29137832874415,Засвияжский район,Ulyanovsk Oblast,Ulyanovsk,Самарская улица,27,5,5,1,38.6,18.0,14.0,,3.0,2008.0,4.0,2.0,1.0,1.0,1.0,1.0,10.0,1.0,32.0,13.0
https://ulyanovsk.cian.ru/sale/flat/298788695/,2024-03-18 01:55:00,3700000,1.0,"Ульяновская область, Ульяновск, ул. Нахимова, 19",54.34186,48.53776187519789,Zavolzhskiy,Ulyanovsk Oblast,Ulyanovsk,улица Нахимова,19,1,9,1,30.3,8.3,15.8,2.74,1.0,2018.0,4.0,2.0,1.0,1.0,,1.0,5.0,1.0,6.0,5.0
https://ulyanovsk.cian.ru/sale/flat/294196634/,2024-03-18 13:10:00,2400000,1.0,"Ульяновская область, Ульяновск, ул. Пушкарева, 20",54.30921645,48.35175840056763,Засвияжский район,Ulyanovsk Oblast,Ulyanovsk,улица Пушкарёва,20,4,5,1,31.0,17.2,6.0,,3.0,1969.0,4.0,,1.0,,,1.0,7.0,2.0,10.0,9.0
https://ulyanovsk.cian.ru/sale/flat/299439575/,2024-03-18 10:10:00,3100000,1.0,"Ульяновская область, Ульяновск, р-н Ленинский, ул. Ульяны Громовой, 4",54.35700255,48.38353995953217,Ленинский район,Ulyanovsk Oblast,Ulyanovsk,улица Ульяны Громовой,4,10,10,1,39.0,,7.0,,3.0,1989.0,4.0,,1.0,,2.0,1.0,2.0,,7.0,4.0
https://ulyanovsk.cian.ru/sale/flat/299012256/,2024-03-05 12:24:00,2050000,1.0,"Ульяновская область, Ульяновск, р-н Засвияжский, ул. Полбина, 16",54.3045501,48.32162085360213,Засвияжский район,Ulyanovsk Oblast,Ulyanovsk,улица Полбина,16,4,4,1,30.5,,5.0,2.8,,1961.0,1.0,1.0,1.0,,,1.0,8.0,1.0,11.0,7.0
https://ulyanovsk.cian.ru/sale/flat/298626325/,2024-03-18 23:26:00,3700000,1.0,"Ульяновская область, Ульяновск, р-н Ленинский, ул. Ульяны Громовой, 5А",54.3570444,48.3811522060716,Ленинский район,Ulyanovsk Oblast,Ulyanovsk,улица Ульяны Громовой,5А,15,19,1,36.5,,10.0,,1.0,2016.0,1.0,,1.0,,2.0,1.0,2.0,,8.0,5.0
https://ulyanovsk.cian.ru/sale/flat/293918272/,2024-03-18 23:25:00,3759000,1.0,"Ульяновская область, Ульяновск, р-н Заволжский, просп. Генерала Тюленева, 6В",54.37662295,48.59704474291979,Zavolzhskiy,Ulyanovsk Oblast,Ulyanovsk,проспект Генерала Тюленева,6В,12,19,1,41.9,16.5,11.2,,,2022.0,5.0,,1.0,,,1.0,14.0,4.0,25.0,13.0
https://ulyanovsk.cian.ru/sale/flat/296643912/,2024-03-19 18:19:00,3800000,1.0,"Ульяновская область, Ульяновск, р-н Заволжский, просп. Генерала Тюленева, 50",54.3822425,48.5867874,Zavolzhskiy,Ulyanovsk Oblast,Ulyanovsk,проспект Генерала Тюленева,,7,17,1,35.6,,,,2.0,2023.0,3.0,,1.0,1.0,2.0,1.0,16.0,3.0,21.0,16.0
https://ulyanovsk.cian.ru/sale/flat/297493765/,2024-03-04 19:15:00,3800000,1.0,"Ульяновская область, Ульяновск, ул. Розы Люксембург, 47",54.3543072,48.3782418,Ленинский район,Ulyanovsk Oblast,Ulyanovsk,улица Розы Люксембург,,1,3,1,40.0,20.0,10.0,3.3,2.0,,1.0,,1.0,1.0,,,4.0,,12.0,9.0
https://ulyanovsk.cian.ru/sale/flat/292067071/,2024-03-18 10:10:00,3800000,1.0,"Ульяновская область, Ульяновск, р-н Железнодорожный, ул. Кирова, 6",54.30126445,48.38269538028148,Железнодорожный район,Ulyanovsk Oblast,Ulyanovsk,улица Кирова,6,4,19,1,41.0,,12.0,,3.0,2014.0,3.0,,1.0,,2.0,1.0,4.0,6.0,16.0,10.0
https://ulyanovsk.cian.ru/sale/flat/299745771/,2024-03-18 23:09:00,3800000,1.0,"Ульяновская область, Ульяновск, р-н Засвияжский, ул. Рябикова, 124с1",54.26564295,48.27986082436578,Засвияжский район,Ulyanovsk Oblast,Ulyanovsk,улица Рябикова,124 с1,1,5,1,38.4,,11.5,,3.0,2008.0,4.0,,1.0,,,1.0,5.0,1.0,14.0,7.0
https://ulyanovsk.cian.ru/sale/flat/299404795/,2024-03-18 10:10:00,3850000,1.0,"Ульяновская область, Ульяновск, р-н Засвияжский, Автозаводская ул., 51Б",54.2975263,48.31908970145024,Засвияжский район,Ulyanovsk Oblast,Ulyanovsk,Автозаводская улица,51Б,9,9,1,42.5,,12.4,,3.0,2022.0,1.0,,1.0,,1.0,1.0,9.0,2.0,13.0,11.0
https://ulyanovsk.cian.ru/sale/flat/299680017/,2024-03-18 23:10:00,3850000,1.0,"Ульяновская область, Ульяновск, р-н Засвияжский, Камышинская ул., 105",54.28403155,48.26324380920944,Засвияжский район,Ulyanovsk Oblast,Ulyanovsk,Камышинская улица,105,3,3,1,35.5,,11.5,,,2017.0,3.0,,1.0,,,1.0,1.0,,5.0,2.0
https://ulyanovsk.cian.ru/sale/flat/285026079/,2024-03-18 15:15:00,3850000,1.0,"Ульяновская область, Ульяновск, р-н Заволжский, ул. Карбышева, 40",54.3908554,48.58080462500239,Zavolzhskiy,Ulyanovsk Oblast,Ulyanovsk,улица Карбышева,40,5,16,1,42.0,19.0,10.0,,3.0,2015.0,1.0,,1.0,,,1.0,4.0,1.0,12.0,8.0
https://ulyanovsk.cian.ru/sale/flat/298865564/,2024-03-19 12:25:00,3899000,1.0,"Ульяновская область, Ульяновск, р-н Заволжский, Киевский бул., 11к1",54.3799138,48.6008415,Zavolzhskiy,Ulyanovsk Oblast,Ulyanovsk,Киевский бульвар,11 к1,6,10,1,44.7,18.0,14.0,,3.0,2012.0,3.0,,1.0,,,1.0,11.0,4.0,19.0,13.0
https://ulyanovsk.cian.ru/sale/flat/295738655/,2024-03-18 23:25:00,3850000,1.0,"Ульяновская область, Ульяновск, р-н Ленинский, ул. Скочилова, 7",54.34884335,48.34441579269243,Ленинский район,Ulyanovsk Oblast,Ulyanovsk,улица Скочилова,7,2,10,1,37.2,,12.0,,3.0,2006.0,4.0,,1.0,,2.0,1.0,1.0,1.0,5.0,3.0
https://ulyanovsk.cian.ru/sale/flat/295875323/,2024-03-18 19:10:00,3850000,1.0,"Ульяновская область, Ульяновск, р-н Засвияжский, ул. Корунковой, 15",54.274716,48.3074856,Засвияжский район,Ulyanovsk Oblast,Ulyanovsk,улица Корунковой,15,10,10,1,41.0,21.8,10.5,,,2009.0,,,1.0,,,1.0,8.0,,27.0,13.0
https://ulyanovsk.cian.ru/sale/flat/281272676/,2024-03-18 17:40:00,3900000,1.0,"Ульяновская область, Ульяновск, р-н Заволжский, просп. Туполева, 10",54.36844825,48.57838354060564,Zavolzhskiy,Ulyanovsk Oblast,Ulyanovsk,проспект Туполева,10,8,9,1,35.01,17.2,7.1,,3.0,1983.0,4.0,,1.0,,,1.0,8.0,,16.0,9.0
https://ulyanovsk.cian.ru/sale/flat/296409250/,2024-03-18 23:25:00,3900000,1.0,"Ульяновская область, Ульяновск, р-н Засвияжский, ул. Юго-западная, 11",54.2793452,48.2631433,Засвияжский район,Ulyanovsk Oblast,Ulyanovsk,Юго-Западная улица,11,3,19,1,36.5,,14.2,,2.0,2023.0,,,1.0,,2.0,,2.0,,8.0,3.0
https://ulyanovsk.cian.ru/sale/flat/295074431/,2024-03-18 10:10:00,3950000,1.0,"Ульяновская область, Ульяновск, р-н Железнодорожный, ул. Куйбышева, 12",54.3044334,48.37508685369458,Железнодорожный район,Ulyanovsk Oblast,Ulyanovsk,улица Куйбышева,12,4,5,1,35.0,,10.0,,2.0,1961.0,1.0,,1.0,,,1.0,5.0,5.0,12.0,9.0
https://ulyanovsk.cian.ru/sale/flat/296735444/,2024-03-19 10:57:00,3999000,1.0,"Ульяновская область, Ульяновск, р-н Заволжский, просп. Маршала Устинова, 48",54.3914755,48.575519,Zavolzhskiy,Ulyanovsk Oblast,Ulyanovsk,проспект Маршала Устинова,,2,5,1,40.0,17.7,10.1,,,2023.0,,,1.0,,,1.0,4.0,,11.0,5.0
https://ulyanovsk.cian.ru/sale/flat/299342787/,2024-03-06 21:31:00,3950000,1.0,"Ульяновская область, Ульяновск, р-н Засвияжский, ул. Шигаева, 21к1",54.2677309,48.2726865218509,Засвияжский район,Ulyanovsk Oblast,Ulyanovsk,улица Шигаева,21 к1,8,10,1,36.0,18.0,8.5,2.65,2.0,2014.0,4.0,2.0,1.0,1.0,1.0,1.0,6.0,1.0,11.0,6.0
https://ulyanovsk.cian.ru/sale/flat/299076496/,2024-03-17 23:10:00,3950000,1.0,"Ульяновская область, Ульяновск, р-н Засвияжский, ул. Рябикова, 124с2",54.2657973,48.28146229859684,Засвияжский район,Ulyanovsk Oblast,Ulyanovsk,улица Рябикова,124 с2,3,5,1,35.4,,8.3,,3.0,2008.0,,,1.0,,,1.0,5.0,1.0,15.0,8.0
https://ulyanovsk.cian.ru/sale/flat/298752358/,2024-03-18 12:40:00,3950000,1.0,"Ульяновская область, Ульяновск, Отрадная ул., 14к1",54.26524655,48.301104913084274,Засвияжский район,Ulyanovsk Oblast,Ulyanovsk,Отрадная улица,14 к1,8,9,1,49.0,18.0,12.0,,3.0,2015.0,1.0,,1.0,,,1.0,3.0,1.0,15.0,7.0
https://ulyanovsk.cian.ru/sale/flat/298491327/,2024-03-18 10:40:00,3950000,1.0,"Ульяновская область, Ульяновск, р-н Ленинский, ул. Можайского, 14",54.3249119,48.38717640119695,Ленинский район,Ulyanovsk Oblast,Ulyanovsk,улица Можайского,14,3,4,1,30.4,,8.0,,2.0,1975.0,,,1.0,,,1.0,6.0,2.0,18.0,6.0
https://ulyanovsk.cian.ru/sale/flat/292210340/,2024-03-18 23:23:00,3990000,1.0,"Ульяновская область, Ульяновск, р-н Ленинский, ул. Гагарина, 31",54.33199255,48.38673641971154,Ленинский район,Ulyanovsk Oblast,Ulyanovsk,улица Гагарина,31,7,18,1,40.6,,12.0,,,1988.0,,,1.0,,2.0,1.0,4.0,3.0,18.0,6.0
https://ulyanovsk.cian.ru/sale/flat/295692881/,2024-03-18 23:22:00,3950000,1.0,"Ульяновская область, Ульяновск, р-н Ленинский, ул. Гагарина, 31",54.33199255,48.38673641971154,Ленинский район,Ulyanovsk Oblast,Ulyanovsk,улица Гагарина,31,6,18,1,35.7,,7.9,,,1988.0,,,1.0,,2.0,1.0,4.0,3.0,18.0,6.0
https://ulyanovsk.cian.ru/sale/flat/289231495/,2024-10-02 13:12:00,3950000,1.0,"Ульяновская область, Ульяновск, р-н Заволжский, просп. Генерала Тюленева, 44",54.390425750000006,48.57836983818085,Zavolzhskiy,Ulyanovsk Oblast,Ulyanovsk,проспект Генерала Тюленева,44,8,14,1,42.7,17.0,11.0,2.7,2.0,2015.0,4.0,1.0,1.0,1.0,2.0,1.0,4.0,1.0,13.0,9.0
https://ulyanovsk.cian.ru/sale/flat/299301455/,2024-03-18 10:10:00,4000000,1.0,"Ульяновская область, Ульяновск, р-н Заволжский, просп. Маршала Устинова, 7/14А",54.3914755,48.575519,Zavolzhskiy,Ulyanovsk Oblast,Ulyanovsk,проспект Маршала Устинова,,16,17,1,33.0,,15.0,,,2021.0,3.0,,1.0,,2.0,1.0,4.0,,11.0,5.0
https://ulyanovsk.cian.ru/sale/flat/294748997/,2024-03-14 14:59:00,4000000,1.0,"Ульяновская область, Ульяновск, р-н Заволжский, просп. Генерала Тюленева, 10",54.37680925,48.59469645591447,Zavolzhskiy,Ulyanovsk Oblast,Ulyanovsk,проспект Генерала Тюленева,10,8,9,1,37.4,19.0,9.0,,2.0,2013.0,,1.0,1.0,1.0,1.0,1.0,13.0,4.0,27.0,13.0
https://ulyanovsk.cian.ru/sale/flat/299569889/,2024-03-13 19:57:00,3000000,1.0,"Ульяновская область, Ульяновск, р-н Засвияжский, ул. Стасова, 24",54.2907076,48.3081912,Засвияжский район,Ulyanovsk Oblast,Ulyanovsk,улица Стасова,24,5,5,1,31.5,20.0,6.5,2.6,2.0,1964.0,1.0,2.0,1.0,1.0,,1.0,9.0,4.0,20.0,12.0
https://ulyanovsk.cian.ru/sale/flat/293724230/,2024-03-18 10:10:00,3000000,1.0,"Ульяновская область, Ульяновск, р-н Засвияжский, Автозаводская ул., 51Б",54.2975263,48.31908970145024,Засвияжский район,Ulyanovsk Oblast,Ulyanovsk,Автозаводская улица,51Б,1,9,1,46.0,,16.5,,,2022.0,1.0,,1.0,,1.0,1.0,9.0,2.0,13.0,11.0
https://ulyanovsk.cian.ru/sale/flat/294748997/,2024-03-14 14:59:00,4000000,1.0,"Ульяновская область, Ульяновск, р-н Заволжский, просп. Генерала Тюленева, 10",54.37680925,48.59469645591447,Zavolzhskiy,Ulyanovsk Oblast,Ulyanovsk,проспект Генерала Тюленева,10,8,9,1,37.4,19.0,9.0,,2.0,2013.0,,1.0,1.0,1.0,1.0,1.0,13.0,4.0,27.0,13.0
https://ulyanovsk.cian.ru/sale/flat/296186061/,2024-03-19 16:10:00,2889000,1.0,"Ульяновская область, Ульяновск, р-н Засвияжский, ул. Рябикова, 77",54.2706558,48.28718956791058,Засвияжский район,Ulyanovsk Oblast,Ulyanovsk,улица Рябикова,77,6,9,1,34.6,18.0,7.0,2.7,2.0,1982.0,4.0,,,,1.0,1.0,11.0,1.0,34.0,12.0
https://ulyanovsk.cian.ru/sale/flat/294548831/,2024-03-19 17:10:00,2949000,1.0,"Ульяновская область, Ульяновск, р-н Засвияжский, ул. Рябикова, 124с2",54.2657973,48.28146229859684,Засвияжский район,Ulyanovsk Oblast,Ulyanovsk,улица Рябикова,124 с2,1,5,1,35.6,17.0,7.0,2.7,2.0,2008.0,,2.0,,,1.0,,5.0,1.0,15.0,8.0
https://ulyanovsk.cian.ru/sale/flat/298727906/,2024-03-13 11:25:00,2950000,1.0,"Ульяновская область, Ульяновск, Промышленная ул., 78",54.2806377,48.31009533250258,Засвияжский район,Ulyanovsk Oblast,Ulyanovsk,Промышленная улица,78,2,5,1,38.8,18.0,7.0,,1.0,1988.0,4.0,1.0,1.0,,,1.0,10.0,2.0,22.0,10.0
https://ulyanovsk.cian.ru/sale/flat/284012251/,2024-12-19 13:32:00,2890000,1.0,"Ульяновская область, Ульяновск, р-н Засвияжский, ул. Хваткова, 2",54.26134005,48.27857233601642,Засвияжский район,Ulyanovsk Oblast,Ulyanovsk,улица Хваткова,2,6,11,1,35.0,18.0,11.0,,3.0,2014.0,5.0,,1.0,,,1.0,2.0,,7.0,1.0
https://ulyanovsk.cian.ru/sale/flat/298788685/,2024-03-19 18:26:00,2300000,1.0,"Ульяновская область, Ульяновск, ул. Орджоникидзе, 55",54.35750945,48.38000734999999,Ленинский район,Ulyanovsk Oblast,Ulyanovsk,улица Орджоникидзе,55,2,5,1,32.4,18.0,8.0,,3.0,1969.0,4.0,,,,,1.0,3.0,,9.0,5.0
https://ulyanovsk.cian.ru/sale/flat/298865564/,2024-03-19 12:25:00,3899000,1.0,"Ульяновская область, Ульяновск, р-н Заволжский, Киевский бул., 11к1",54.3799138,48.6008415,Zavolzhskiy,Ulyanovsk Oblast,Ulyanovsk,Киевский бульвар,11 к1,6,10,1,44.7,18.0,14.0,,3.0,2012.0,3.0,,1.0,,,1.0,11.0,4.0,19.0,13.0
https://ulyanovsk.cian.ru/sale/flat/295074431/,2024-03-18 10:10:00,3950000,1.0,"Ульяновская область, Ульяновск, р-н Железнодорожный, ул. Куйбышева, 12",54.3044334,48.37508685369458,Железнодорожный район,Ulyanovsk Oblast,Ulyanovsk,улица Куйбышева,12,4,5,1,35.0,,10.0,,2.0,1961.0,1.0,,1.0,,,1.0,5.0,5.0,12.0,9.0
https://ulyanovsk.cian.ru/sale/flat/291946509/,2024-01-23 18:53:00,2550000,1.0,"Ульяновская область, Ульяновск, р-н Засвияжский, ул. Шигаева, 15",54.2673205,48.27652707702087,Засвияжский район,Ulyanovsk Oblast,Ulyanovsk,улица Шигаева,15,10,10,1,41.0,20.0,8.0,,3.0,1995.0,4.0,1.0,1.0,1.0,1.0,1.0,6.0,1.0,14.0,7.0
https://ulyanovsk.cian.ru/sale/flat/298667207/,2024-03-18 23:26:00,3450000,1.0,"Ульяновская область, Ульяновск, р-н Заволжский, ул. Еремецкого, 34/2",54.3864471,48.5753113181249,Zavolzhskiy,Ulyanovsk Oblast,Ulyanovsk,улица Еремецкого,34/2,2,10,1,32.14,,8.0,,,2021.0,4.0,,1.0,,1.0,1.0,9.0,,15.0,11.0
https://ulyanovsk.cian.ru/sale/flat/298450351/,2024-03-18 11:09:00,3999999,1.0,"Ульяновская область, Ульяновск, р-н Засвияжский, ул. Александра Невского, 2Жк1",54.2891007,48.3246097,Засвияжский район,Ulyanovsk Oblast,Ulyanovsk,улица Александра Невского,,17,24,1,39.6,9.9,18.5,2.7,2.0,2020.0,3.0,1.0,,,2.0,,3.0,,6.0,4.0
https://ulyanovsk.cian.ru/sale/flat/287332331/,2024-11-15 11:51:00,3700000,1.0,"Ульяновская область, Ульяновск, р-н Железнодорожный, просп. Гая, 35Б",54.2616264,48.325453168959,Железнодорожный район,Ulyanovsk Oblast,Ulyanovsk,проспект Гая,35Б,3,18,1,46.3,15.3,14.6,2.8,,1960.0,,1.0,1.0,1.0,2.0,1.0,9.0,3.0,22.0,16.0
https://ulyanovsk.cian.ru/sale/flat/295817724/,2024-03-18 23:24:00,3250000,1.0,"Ульяновская область, Ульяновск, р-н Заволжский, Ульяновский просп., 4",54.3717118,48.5863629,Zavolzhskiy,Ulyanovsk Oblast,Ulyanovsk,Ульяновский проспект,4,13,16,1,43.7,,8.5,,3.0,1989.0,1.0,,1.0,,2.0,1.0,13.0,2.0,20.0,10.0
https://ulyanovsk.cian.ru/sale/flat/295074395/,2024-03-18 10:10:00,3050000,1.0,"Ульяновская область, Ульяновск, р-н Засвияжский, Октябрьская ул., 30А",54.29978225,48.34376375235058,Засвияжский район,Ulyanovsk Oblast,Ulyanovsk,Октябрьская улица,30А,10,10,1,34.3,17.5,8.7,,2.0,1990.0,4.0,,2.0,,2.0,1.0,9.0,1.0,15.0,9.0
https://ulyanovsk.cian.ru/sale/flat/288639858/,2024-01-22 22:10:00,3300000,1.0,"Ульяновская область, Ульяновск, р-н Засвияжский, ул. Стасова, 19",54.2896114,48.3108827318888,Засвияжский район,Ulyanovsk Oblast,Ulyanovsk,улица Стасова,19,4,9,1,39.6,20.0,10.0,2.6,3.0,2013.0,4.0,,,1.0,1.0,1.0,7.0,4.0,20.0,11.0
https://ulyanovsk.cian.ru/sale/flat/295298179/,2024-03-18 10:10:00,2900000,1.0,"Ульяновская область, Ульяновск, р-н Засвияжский, Кузоватовская ул., 31",54.28451165,48.29168181478813,Засвияжский район,Ulyanovsk Oblast,Ulyanovsk,Кузоватовская улица,31,2,12,1,38.4,,9.7,,2.0,1984.0,1.0,,1.0,,2.0,1.0,12.0,4.0,31.0,19.0
https://ulyanovsk.cian.ru/sale/flat/297219573/,2024-03-18 23:13:00,2850000,1.0,"Ульяновская область, Ульяновск, р-н Засвияжский, Промышленная ул., 30",54.2864006,48.29633778275808,Засвияжский район,Ulyanovsk Oblast,Ulyanovsk,Промышленная улица,30,6,16,1,34.8,,9.8,,3.0,1985.0,4.0,,1.0,,2.0,,10.0,4.0,28.0,18.0
https://ulyanovsk.cian.ru/sale/flat/298788706/,2024-03-19 13:41:00,2700000,1.0,"Ульяновская область, Ульяновск, Ипподромная ул., 4А",54.3627035,48.35272974306352,Ленинский район,Ulyanovsk Oblast,Ulyanovsk,Ипподромная улица,4А,3,24,1,37.6,12.0,10.0,,,2017.0,3.0,,1.0,,,1.0,,2.0,2.0,3.0
https://ulyanovsk.cian.ru/sale/flat/299214789/,2024-03-18 10:10:00,3100000,1.0,"Ульяновская область, Ульяновск, р-н Засвияжский, ул. Корунковой, 11",54.2754915,48.307946100140114,Засвияжский район,Ulyanovsk Oblast,Ulyanovsk,улица Корунковой,11,3,9,1,35.0,,7.0,,3.0,1986.0,4.0,,1.0,,1.0,1.0,9.0,,26.0,12.0
https://ulyanovsk.cian.ru/sale/flat/299076496/,2024-03-17 23:10:00,3950000,1.0,"Ульяновская область, Ульяновск, р-н Засвияжский, ул. Рябикова, 124с2",54.2657973,48.28146229859684,Засвияжский район,Ulyanovsk Oblast,Ulyanovsk,улица Рябикова,124 с2,3,5,1,35.4,,8.3,,3.0,2008.0,,,1.0,,,1.0,5.0,1.0,15.0,8.0
https://ulyanovsk.cian.ru/sale/flat/292265247/,2024-03-07 12:36:00,2699000,1.0,"Ульяновская область, Ульяновск, р-н Железнодорожный, ул. Автомобилистов, 7А",54.2507774,48.32625826041708,Железнодорожный район,Ulyanovsk Oblast,Ulyanovsk,улица Автомобилистов,7А,15,17,1,30.8,14.2,8.5,2.8,2.0,2016.0,1.0,2.0,1.0,1.0,3.0,1.0,4.0,,17.0,11.0
https://ulyanovsk.cian.ru/sale/flat/295147025/,2024-03-19 16:25:00,2700000,1.0,"Ульяновская область, Ульяновск, р-н Засвияжский, Жигулевская ул., 66",54.27347515,48.30026151125665,Засвияжский район,Ulyanovsk Oblast,Ulyanovsk,Жигулёвская улица,66,8,9,1,34.6,,7.1,,3.0,1989.0,4.0,,1.0,,1.0,1.0,9.0,1.0,35.0,17.0
https://ulyanovsk.cian.ru/sale/flat/297873762/,2024-03-18 10:40:00,2900000,1.0,"Ульяновская область, Ульяновск, р-н Засвияжский, ул. Александра Невского, 2Бк1",54.2891007,48.3246097,Засвияжский район,Ulyanovsk Oblast,Ulyanovsk,улица Александра Невского,,10,10,1,37.8,,7.4,,3.0,2012.0,4.0,,1.0,,2.0,1.0,3.0,,6.0,4.0
https://ulyanovsk.cian.ru/sale/flat/299028472/,2024-02-27 19:51:00,3650000,1.0,"Ульяновская область, Ульяновск, р-н Засвияжский, Камышинская ул., 21",54.2716561,48.3017243,Засвияжский район,Ulyanovsk Oblast,Ulyanovsk,Камышинская улица,21,3,9,1,36.6,,7.1,2.5,1.0,1985.0,4.0,2.0,1.0,1.0,1.0,1.0,7.0,1.0,30.0,13.0
https://ulyanovsk.cian.ru/sale/flat/294932263/,2024-03-18 10:10:00,3600000,1.0,"Ульяновская область, Ульяновск, р-н Засвияжский, Камышинская ул., 43В",54.27916745,48.28591605589098,Засвияжский район,Ulyanovsk Oblast,Ulyanovsk,Камышинская улица,43В,4,10,1,38.0,,10.5,,2.0,2011.0,4.0,,1.0,,,1.0,11.0,2.0,32.0,19.0
https://ulyanovsk.cian.ru/sale/flat/299135190/,2024-03-18 08:40:00,3850000,1.0,"Ульяновская область, Ульяновск, р-н Ленинский, ул. Скочилова, 9",54.349046650000005,48.34249596466159,Ленинский район,Ulyanovsk Oblast,Ulyanovsk,улица Скочилова,9,1,10,1,33.6,15.8,9.3,2.6,3.0,2007.0,4.0,1.0,,,,,1.0,1.0,5.0,3.0
https://ulyanovsk.cian.ru/sale/flat/295019463/,2024-03-18 10:10:00,3600000,1.0,"Ульяновская область, Ульяновск, р-н Заволжский, просп. Врача Сурова, 24",54.3931587,48.588045765646896,Zavolzhskiy,Ulyanovsk Oblast,Ulyanovsk,проспект Врача Сурова,24,2,10,1,37.3,,9.1,,3.0,1995.0,4.0,,1.0,,,1.0,3.0,1.0,9.0,5.0
https://ulyanovsk.cian.ru/sale/flat/296218141/,2024-03-18 10:10:00,3600000,1.0,"Ульяновская область, Ульяновск, р-н Засвияжский, ул. Шигаева, 6",54.2660481,48.2758301,Засвияжский район,Ulyanovsk Oblast,Ulyanovsk,улица Шигаева,6,1,6,1,39.4,,8.6,,3.0,2008.0,4.0,,1.0,,2.0,1.0,4.0,1.0,13.0,7.0
https://ulyanovsk.cian.ru/sale/flat/297813676/,2024-02-27 18:45:00,3800000,1.0,"Ульяновская область, Ульяновск, р-н Засвияжский, Отрадная ул., 14к1",54.26524655,48.301104913084274,Засвияжский район,Ulyanovsk Oblast,Ulyanovsk,Отрадная улица,14 к1,9,10,1,40.6,,,,,2015.0,1.0,,,,1.0,,3.0,1.0,15.0,7.0
https://ulyanovsk.cian.ru/sale/flat/294699247/,2024-03-18 23:24:00,3700000,1.0,"Ульяновская область, Ульяновск, Панорамная ул., 81",54.346083,48.344415915909096,Ленинский район,Ulyanovsk Oblast,Ulyanovsk,Панорамная улица,81,13,16,1,35.1,,7.5,,3.0,2019.0,4.0,,1.0,,1.0,1.0,2.0,,5.0,2.0
https://ulyanovsk.cian.ru/sale/flat/297966450/,2024-03-18 23:26:00,3700000,1.0,"Ульяновская область, Ульяновск, р-н Засвияжский, Фруктовая ул., 1",54.27837165,48.31108258998175,Засвияжский район,Ulyanovsk Oblast,Ulyanovsk,Фруктовая улица,1,9,10,1,35.3,,5.0,,2.0,1987.0,4.0,,1.0,,,1.0,9.0,2.0,21.0,8.0
https://ulyanovsk.cian.ru/sale/flat/298276254/,2024-03-17 09:05:00,2550000,1.0,"Ульяновская область, Ульяновск, р-н Железнодорожный, Хрустальная ул., 8А",54.26862305,48.3340720100712,Железнодорожный район,Ulyanovsk Oblast,Ulyanovsk,Хрустальная улица,8А,4,5,1,36.88,19.5,7.9,2.5,2.0,1994.0,5.0,2.0,1.0,,,1.0,7.0,3.0,10.0,7.0
https://ulyanovsk.cian.ru/sale/flat/298626325/,2024-03-18 23:26:00,3700000,1.0,"Ульяновская область, Ульяновск, р-н Ленинский, ул. Ульяны Громовой, 5А",54.3570444,48.3811522060716,Ленинский район,Ulyanovsk Oblast,Ulyanovsk,улица Ульяны Громовой,5А,15,19,1,36.5,,10.0,,1.0,2016.0,1.0,,1.0,,2.0,1.0,2.0,,8.0,5.0
https://ulyanovsk.cian.ru/sale/flat/295692881/,2024-03-18 23:22:00,3950000,1.0,"Ульяновская область, Ульяновск, р-н Ленинский, ул. Гагарина, 31",54.33199255,48.38673641971154,Ленинский район,Ulyanovsk Oblast,Ulyanovsk,улица Гагарина,31,6,18,1,35.7,,7.9,,,1988.0,,,1.0,,2.0,1.0,4.0,3.0,18.0,6.0
https://ulyanovsk.cian.ru/sale/flat/293918272/,2024-03-18 23:25:00,3759000,1.0,"Ульяновская область, Ульяновск, р-н Заволжский, просп. Генерала Тюленева, 6В",54.37662295,48.59704474291979,Zavolzhskiy,Ulyanovsk Oblast,Ulyanovsk,проспект Генерала Тюленева,6В,12,19,1,41.9,16.5,11.2,,,2022.0,5.0,,1.0,,,1.0,14.0,4.0,25.0,13.0
https://ulyanovsk.cian.ru/sale/flat/297245019/,2024-01-17 05:18:00,3100000,1.0,"Ульяновская область, Ульяновск, р-н Заволжский, просп. Столыпина, 12",54.3652517,48.56985412384522,Zavolzhskiy,Ulyanovsk Oblast,Ulyanovsk,проспект Столыпина,12,2,3,1,32.0,16.0,9.0,2.6,2.0,2020.0,1.0,,1.0,,,1.0,1.0,,8.0,3.0
https://ulyanovsk.cian.ru/sale/flat/292067071/,2024-03-18 10:10:00,3800000,1.0,"Ульяновская область, Ульяновск, р-н Железнодорожный, ул. Кирова, 6",54.3006976,48.3820463,Железнодорожный район,Ulyanovsk Oblast,Ulyanovsk,улица Кирова,6,4,19,1,41.0,,12.0,,3.0,2014.0,3.0,,1.0,,2.0,1.0,4.0,5.0,18.0,10.0
https://ulyanovsk.cian.ru/sale/flat/299404795/,2024-03-18 10:10:00,3850000,1.0,"Ульяновская область, Ульяновск, р-н Засвияжский, Автозаводская ул., 51Б",54.2975263,48.31908970145024,Засвияжский район,Ulyanovsk Oblast,Ulyanovsk,Автозаводская улица,51Б,9,9,1,42.5,,12.4,,3.0,2022.0,1.0,,1.0,,1.0,1.0,9.0,2.0,13.0,11.0
https://ulyanovsk.cian.ru/sale/flat/298807160/,2024-03-06 20:33:00,4000000,1.0,"Ульяновская область, Ульяновск, р-н Заволжский, Новосондецкий бул., 9",54.3776355,48.58530718711485,Zavolzhskiy,Ulyanovsk Oblast,Ulyanovsk,Новосондецкий бульвар,9,13,16,1,39.9,17.0,9.2,,2.0,1988.0,,2.0,1.0,,2.0,1.0,16.0,3.0,26.0,17.0
https://ulyanovsk.cian.ru/sale/flat/298865564/,2024-03-19 12:25:00,3899000,1.0,"Ульяновская область, Ульяновск, р-н Заволжский, Киевский бул., 11к1",54.3799138,48.6008415,Zavolzhskiy,Ulyanovsk Oblast,Ulyanovsk,Киевский бульвар,11 к1,6,10,1,44.7,18.0,14.0,,3.0,2012.0,3.0,,1.0,,,1.0,11.0,4.0,19.0,13.0
https://ulyanovsk.cian.ru/sale/flat/295875323/,2024-03-18 19:10:00,3850000,1.0,"Ульяновская область, Ульяновск, р-н Засвияжский, ул. Корунковой, 15",54.2748581,48.30783444948285,Засвияжский район,Ulyanovsk Oblast,Ulyanovsk,улица Корунковой,15,10,10,1,41.0,21.8,10.5,,,2009.0,,,1.0,,,1.0,9.0,,26.0,13.0
https://ulyanovsk.cian.ru/sale/flat/299765418/,2024-03-19 13:11:00,3149000,1.0,"Ульяновская область, Ульяновск, р-н Заволжский, просп. Созидателей, 114/2",54.3751879,48.6050822,Zavolzhskiy,Ulyanovsk Oblast,Ulyanovsk,проспект Созидателей,,6,9,1,24.0,12.0,5.0,2.7,2.0,2022.0,,1.0,1.0,,2.0,1.0,7.0,3.0,16.0,10.0
https://ulyanovsk.cian.ru/sale/flat/281272676/,2024-03-18 17:40:00,3900000,1.0,"Ульяновская область, Ульяновск, р-н Заволжский, просп. Туполева, 10",54.36844825,48.57838354060564,Zavolzhskiy,Ulyanovsk Oblast,Ulyanovsk,проспект Туполева,10,8,9,1,35.01,17.2,7.1,,3.0,1983.0,4.0,,1.0,,,1.0,8.0,,16.0,9.0
https://ulyanovsk.cian.ru/sale/flat/299076496/,2024-03-17 23:10:00,3950000,1.0,"Ульяновская область, Ульяновск, р-н Засвияжский, ул. Рябикова, 124с2",54.2657973,48.28146229859684,Засвияжский район,Ulyanovsk Oblast,Ulyanovsk,улица Рябикова,124 с2,3,5,1,35.4,,8.3,,3.0,2008.0,,,1.0,,,1.0,5.0,1.0,15.0,8.0
https://ulyanovsk.cian.ru/sale/flat/297534328/,2024-03-19 02:40:00,2495000,1.0,"Ульяновская область, Ульяновск, ул. Рябикова, 59",54.27577845,48.29398035155724,Засвияжский район,Ulyanovsk Oblast,Ulyanovsk,улица Рябикова,59,5,5,1,33.64,18.0,6.0,,2.0,1987.0,1.0,1.0,1.0,1.0,,1.0,14.0,2.0,38.0,23.0
https://ulyanovsk.cian.ru/sale/flat/295074431/,2024-03-18 10:10:00,3950000,1.0,"Ульяновская область, Ульяновск, р-н Железнодорожный, ул. Куйбышева, 12",54.3044334,48.37508685369458,Железнодорожный район,Ulyanovsk Oblast,Ulyanovsk,улица Куйбышева,12,4,5,1,35.0,,10.0,,2.0,1961.0,1.0,,1.0,,,1.0,5.0,5.0,12.0,9.0
https://ulyanovsk.cian.ru/sale/flat/299342787/,2024-03-06 21:31:00,3950000,1.0,"Ульяновская область, Ульяновск, р-н Засвияжский, ул. Шигаева, 21к1",54.2677309,48.2726865218509,Засвияжский район,Ulyanovsk Oblast,Ulyanovsk,улица Шигаева,21 к1,8,10,1,36.0,18.0,8.5,2.65,2.0,2014.0,4.0,2.0,1.0,1.0,1.0,1.0,6.0,1.0,11.0,6.0
https://ulyanovsk.cian.ru/sale/flat/289231495/,2024-10-02 13:12:00,3950000,1.0,"Ульяновская область, Ульяновск, р-н Заволжский, просп. Генерала Тюленева, 44",54.390425750000006,48.57836983818085,Zavolzhskiy,Ulyanovsk Oblast,Ulyanovsk,проспект Генерала Тюленева,44,8,14,1,42.7,17.0,11.0,2.7,2.0,2015.0,4.0,1.0,1.0,1.0,2.0,1.0,4.0,1.0,13.0,9.0
https://ulyanovsk.cian.ru/sale/flat/298752358/,2024-03-18 12:40:00,3950000,1.0,"Ульяновская область, Ульяновск, Отрадная ул., 14к1",54.26524655,48.301104913084274,Засвияжский район,Ulyanovsk Oblast,Ulyanovsk,Отрадная улица,14 к1,8,9,1,49.0,18.0,12.0,,3.0,2015.0,1.0,,1.0,,,1.0,3.0,1.0,15.0,7.0
https://ulyanovsk.cian.ru/sale/flat/296735444/,2024-03-19 10:57:00,3999000,1.0,"Ульяновская область, Ульяновск, р-н Заволжский, просп. Маршала Устинова, 48",54.3857021,48.5620591,Zavolzhskiy,Ulyanovsk Oblast,Ulyanovsk,проспект Маршала Устинова,,2,5,1,40.0,17.7,10.1,,,2023.0,,,1.0,,,1.0,4.0,,6.0,6.0
https://ulyanovsk.cian.ru/sale/flat/296103184/,2024-03-19 12:40:00,2750000,1.0,"Ульяновская область, Ульяновск, р-н Заволжский, ул. 40-летия Победы, 19",54.3691465,48.58573345,Zavolzhskiy,Ulyanovsk Oblast,Ulyanovsk,улица 40-летия Победы,19,1,7,1,30.2,13.0,8.0,2.6,3.0,1998.0,4.0,1.0,1.0,,1.0,2.0,11.0,2.0,15.0,8.0
https://ulyanovsk.cian.ru/sale/flat/296962467/,2024-03-18 10:10:00,3599000,1.0,"Ульяновская область, Ульяновск, р-н Заволжский, просп. Генерала Тюленева, 27",54.38342265,48.58450700263605,Zavolzhskiy,Ulyanovsk Oblast,Ulyanovsk,проспект Генерала Тюленева,27,9,9,1,32.7,15.0,7.0,,2.0,1983.0,4.0,,1.0,,2.0,1.0,16.0,3.0,18.0,15.0
https://ulyanovsk.cian.ru/sale/flat/297396719/,2024-03-18 10:59:00,2350000,1.0,"Ульяновская область, Ульяновск, р-н Ленинский, ул. Розы Люксембург, 20",54.3463301,48.38703211387883,Ленинский район,Ulyanovsk Oblast,Ulyanovsk,улица Розы Люксембург,20,3,4,1,29.9,17.5,5.6,2.5,3.0,1963.0,1.0,2.0,1.0,,,,4.0,1.0,10.0,5.0
https://ulyanovsk.cian.ru/sale/flat/290232760/,2024-03-19 17:25:00,3990000,1.0,"Ульяновская область, Ульяновск, р-н Заволжский, просп. Зырина, 17",54.3675863,48.56854740449145,Zavolzhskiy,Ulyanovsk Oblast,Ulyanovsk,проспект Зырина,17,3,4,1,34.7,15.1,8.8,2.7,2.0,2022.0,1.0,1.0,,,,,4.0,,9.0,4.0
https://ulyanovsk.cian.ru/sale/flat/299612997/,2024-03-14 20:08:00,3100000,1.0,"Ульяновская область, Ульяновск, р-н Ленинский, ул. Репина, 45",54.34762095,48.34875677102728,Ленинский район,Ulyanovsk Oblast,Ulyanovsk,улица Репина,45,8,10,1,35.0,18.0,7.0,2.6,3.0,2000.0,4.0,2.0,1.0,1.0,1.0,1.0,3.0,1.0,6.0,3.0
https://ulyanovsk.cian.ru/sale/flat/299192275/,2024-03-18 10:40:00,2600000,1.0,"Ульяновская область, Ульяновск, р-н Засвияжский, УКСМ поселок, 8А",54.2627185,48.2713891,Засвияжский район,Ulyanovsk Oblast,Ulyanovsk,улица Посёлок УКСМ,,4,5,1,38.0,,10.8,,3.0,,,,1.0,,,1.0,2.0,,7.0,1.0
https://ulyanovsk.cian.ru/sale/flat/299742347/,2024-03-18 21:00:00,3000000,1.0,"Ульяновская область, Ульяновск, р-н Засвияжский, Самарская ул., 27к2",54.26897345,48.293341611502974,Засвияжский район,Ulyanovsk Oblast,Ulyanovsk,Самарская улица,27 к2,5,10,1,27.0,,6.0,,3.0,2010.0,4.0,2.0,1.0,1.0,2.0,1.0,11.0,1.0,32.0,12.0
https://ulyanovsk.cian.ru/sale/flat/298546863/,2024-03-18 11:09:00,3950000,1.0,"Ульяновская область, Ульяновск, р-н Заволжский, просп. Генерала Тюленева, 10",54.37680925,48.59469645591447,Zavolzhskiy,Ulyanovsk Oblast,Ulyanovsk,проспект Генерала Тюленева,10,8,9,1,37.0,18.6,8.4,2.7,3.0,2013.0,,2.0,,,,,13.0,4.0,27.0,13.0
https://ulyanovsk.cian.ru/sale/flat/287044227/,2024-03-18 04:17:00,2750000,1.0,"Ульяновская область, Ульяновск, р-н Засвияжский, Кузоватовская ул., 40А",54.28072765,48.28931454660836,Засвияжский район,Ulyanovsk Oblast,Ulyanovsk,Кузоватовская улица,40А,5,5,1,32.3,19.0,5.7,2.48,3.0,1996.0,1.0,,1.0,,,1.0,11.0,3.0,35.0,21.0
https://ulyanovsk.cian.ru/sale/flat/298923527/,2024-02-24 16:54:00,2422000,1.0,"Ульяновская область, Ульяновск, Краснопролетарская ул., 19",54.3348606,48.48645238521475,Zavolzhskiy,Ulyanovsk Oblast,Ulyanovsk,Краснопролетарская улица,19,2,5,1,30.2,,7.5,2.6,2.0,1975.0,4.0,2.0,1.0,1.0,,1.0,2.0,1.0,6.0,4.0
https://ulyanovsk.cian.ru/sale/flat/294691048/,2024-03-19 16:10:00,3324000,1.0,"Ульяновская область, Ульяновск, р-н Засвияжский, ул. Рябикова, 60А",54.2777009,48.291301989440726,Засвияжский район,Ulyanovsk Oblast,Ulyanovsk,улица Рябикова,60А,9,10,1,35.1,18.3,8.2,2.6,3.0,2007.0,3.0,1.0,1.0,,1.0,1.0,12.0,3.0,39.0,25.0
https://ulyanovsk.cian.ru/sale/flat/296615114/,2024-03-18 09:55:00,2650000,1.0,"Ульяновская область, Ульяновск, р-н Заволжский, Заречная ул., 11",54.321079350000005,48.47260703554496,Zavolzhskiy,Ulyanovsk Oblast,Ulyanovsk,Заречная улица,11,9,9,1,30.4,,5.0,,3.0,2015.0,,,1.0,,2.0,1.0,1.0,1.0,5.0,1.0
https://ulyanovsk.cian.ru/sale/flat/299378115/,2024-03-07 17:38:00,2600000,1.0,"Ульяновская область, Ульяновск, р-н Железнодорожный, ул. Варейкиса, 45",54.2565031,48.340714636174525,Железнодорожный район,Ulyanovsk Oblast,Ulyanovsk,улица Варейкиса,45,3,5,1,30.0,18.0,5.6,2.5,2.0,1970.0,4.0,1.0,1.0,1.0,,1.0,7.0,3.0,16.0,14.0
https://ulyanovsk.cian.ru/sale/flat/298023737/,2024-03-18 23:40:00,4000000,1.0,"Ульяновская область, Ульяновск, р-н Засвияжский, ул. Игошина, 2А",54.2812384,48.2687169,Засвияжский район,Ulyanovsk Oblast,Ulyanovsk,улица Игошина,2А,2,9,1,36.2,,10.5,,2.0,2017.0,4.0,,1.0,,2.0,1.0,6.0,1.0,10.0,7.0
https://ulyanovsk.cian.ru/sale/flat/299112412/,2024-03-19 18:40:00,2800000,1.0,"Ульяновская область, Ульяновск, р-н Ленинский, Верхнеполевая ул., 19",54.3302805,48.385706744927525,Ленинский район,Ulyanovsk Oblast,Ulyanovsk,Верхнеполевая улица,19,3,9,1,35.7,18.1,11.6,,3.0,1979.0,4.0,,1.0,,,,4.0,3.0,15.0,6.0
https://ulyanovsk.cian.ru/sale/flat/299256073/,2024-03-05 14:04:00,3130000,1.0,"Ульяновская область, Ульяновск, р-н Ленинский, ул. Ульяны Громовой, 10А",54.35910835,48.38618314919464,Ленинский район,Ulyanovsk Oblast,Ulyanovsk,улица Ульяны Громовой,10А,6,11,1,37.19,16.4,9.2,2.8,,2022.0,1.0,1.0,1.0,1.0,1.0,1.0,1.0,,7.0,3.0
https://ulyanovsk.cian.ru/sale/flat/293383702/,2024-03-18 19:10:00,3120000,1.0,"Ульяновская область, Ульяновск, р-н Заволжский, Ульяновский просп., 26",54.37981905,48.57644036000865,Zavolzhskiy,Ulyanovsk Oblast,Ulyanovsk,Ульяновский проспект,26,1,9,1,36.9,19.0,9.0,2.6,3.0,1984.0,,2.0,,,1.0,,13.0,,24.0,16.0
https://ulyanovsk.cian.ru/sale/flat/298074744/,2024-02-23 22:39:00,3170000,1.0,"Ульяновская область, Ульяновск, р-н Засвияжский, ул. Александра Невского, 2В",54.2840366,48.3144754,Засвияжский район,Ulyanovsk Oblast,Ulyanovsk,улица Александра Невского,2В,19,25,1,36.5,18.0,9.0,2.7,2.0,2016.0,4.0,,1.0,1.0,3.0,1.0,9.0,3.0,18.0,9.0
https://ulyanovsk.cian.ru/sale/flat/298170109/,2024-03-18 10:40:00,2450000,1.0,"Ульяновская область, Ульяновск, р-н Засвияжский, ул. 154-й Стрелковой дивизии, 38",54.28629305,48.26120147883727,Засвияжский район,Ulyanovsk Oblast,Ulyanovsk,улица 154-й Стрелковой Дивизии,38,3,3,1,31.0,,11.0,,,2017.0,4.0,,1.0,,,1.0,1.0,,5.0,2.0
https://ulyanovsk.cian.ru/sale/flat/295087741/,2024-03-18 11:25:00,2680000,1.0,"Ульяновская область, Ульяновск, р-н Засвияжский, Промышленная ул., 69",54.28281385,48.31241742152777,Засвияжский район,Ulyanovsk Oblast,Ulyanovsk,Промышленная улица,69,7,10,1,39.4,17.5,7.2,2.7,3.0,1990.0,4.0,,,,1.0,,11.0,2.0,20.0,11.0
https://ulyanovsk.cian.ru/sale/flat/298479884/,2024-03-13 12:23:00,3500000,1.0,"Ульяновская область, Ульяновск, р-н Засвияжский, просп. Хо Ши Мина, 21А",54.26930045,48.30133645472343,Засвияжский район,Ulyanovsk Oblast,Ulyanovsk,проспект Хо Ши Мина,21А,7,10,1,35.0,,,,,2008.0,4.0,,,,,,7.0,1.0,26.0,10.0
https://ulyanovsk.cian.ru/sale/flat/299186237/,2024-03-18 20:27:00,2540000,1.0,"Ульяновская область, Ульяновск, р-н Ленинский, ул. Маяковского, 20",54.34141425,48.36775838906763,Ленинский район,Ulyanovsk Oblast,Ulyanovsk,улица Маяковского,20,2,5,1,31.5,19.0,6.0,2.6,3.0,1967.0,,2.0,,,,,3.0,2.0,6.0,2.0
https://ulyanovsk.cian.ru/sale/flat/296227667/,2024-03-19 09:25:00,3830000,1.0,"Ульяновская область, Ульяновск, р-н Ленинский, ул. Защитников Отечества, 9",54.3462514,48.33698021080114,Ленинский район,Ulyanovsk Oblast,Ulyanovsk,улица Защитников Отечества,9,8,9,1,33.5,15.8,8.2,2.8,3.0,2016.0,4.0,2.0,,,2.0,,2.0,,4.0,2.0
https://ulyanovsk.cian.ru/sale/flat/299168425/,2024-03-01 21:28:00,3650000,1.0,"Ульяновская область, Ульяновск, р-н Засвияжский, ул. Игошина, 2А",54.2812384,48.2687169,Засвияжский район,Ulyanovsk Oblast,Ulyanovsk,улица Игошина,2А,7,9,1,36.1,18.0,12.0,2.7,3.0,2017.0,4.0,1.0,1.0,1.0,2.0,1.0,6.0,1.0,10.0,7.0
https://ulyanovsk.cian.ru/sale/flat/297094345/,2024-03-18 23:25:00,2000000,1.0,"Ульяновская область, Ульяновск, р-н Железнодорожный, проезд Героя России Аверьянова, 19",54.25187815,48.32684673779095,Железнодорожный район,Ulyanovsk Oblast,Ulyanovsk,проезд Героя России Аверьянова,19,1,5,1,29.9,,8.0,,3.0,1974.0,1.0,,1.0,,,1.0,5.0,,18.0,14.0
https://ulyanovsk.cian.ru/sale/flat/293518963/,2024-03-18 18:10:00,2470000,1.0,"Ульяновская область, Ульяновск, р-н Железнодорожный, Кольцевая ул., 20",54.26127605,48.34109212244012,Железнодорожный район,Ulyanovsk Oblast,Ulyanovsk,Кольцевая улица,20,1,9,1,35.7,18.0,6.0,2.5,3.0,1973.0,1.0,1.0,1.0,,1.0,,7.0,3.0,17.0,14.0
https://ulyanovsk.cian.ru/sale/flat/297493207/,2024-01-20 18:46:00,3500000,1.0,"Ульяновская область, Ульяновск, Южная ул., 17",54.29983970000001,48.36498401309332,Железнодорожный район,Ulyanovsk Oblast,Ulyanovsk,Южная улица,17,7,11,1,28.0,14.0,7.0,2.7,3.0,2007.0,4.0,1.0,1.0,,2.0,1.0,4.0,3.0,13.0,10.0
https://ulyanovsk.cian.ru/sale/flat/299163710/,2024-03-19 20:25:00,2999999,1.0,"Ульяновская область, Ульяновск, р-н Заволжский, Львовский бул., 19",54.382186950000005,48.607379725657694,Zavolzhskiy,Ulyanovsk Oblast,Ulyanovsk,Львовский бульвар,19,4,9,1,38.5,19.3,9.1,2.7,3.0,1989.0,3.0,1.0,,,1.0,,7.0,4.0,12.0,7.0
https://ulyanovsk.cian.ru/sale/flat/293899514/,2024-03-18 14:40:00,2900000,1.0,"Ульяновская область, Ульяновск, р-н Ленинский, Ипподромная ул., 4А",54.3625016,48.3524448,Ленинский район,Ulyanovsk Oblast,Ulyanovsk,Ипподромная улица,4А,23,24,1,36.2,18.4,8.3,2.7,3.0,2017.0,3.0,2.0,,,,,,2.0,2.0,3.0
https://ulyanovsk.cian.ru/sale/flat/293291311/,2024-11-01 12:48:00,3160000,1.0,"Ульяновская область, Ульяновск, р-н Засвияжский, Камышинская ул., 83",54.2813782,48.2713822,Засвияжский район,Ulyanovsk Oblast,Ulyanovsk,Камышинская улица,83,3,3,1,35.7,18.4,9.6,,,2018.0,3.0,2.0,,,,1.0,6.0,2.0,12.0,11.0
https://ulyanovsk.cian.ru/sale/flat/279132203/,2024-03-19 07:25:00,2699000,1.0,"Ульяновская область, Ульяновск, р-н Заволжский, просп. Созидателей, 1",54.3849074,48.6307322,Zavolzhskiy,Ulyanovsk Oblast,Ulyanovsk,проспект Созидателей,1В,9,10,1,30.6,11.3,9.0,,,,4.0,,1.0,,,1.0,,,2.0,
https://ulyanovsk.cian.ru/sale/flat/295999366/,2024-03-18 10:10:00,3099000,1.0,"Ульяновская область, Ульяновск, р-н Засвияжский, ул. Стасова, 19",54.2896114,48.3108827318888,Засвияжский район,Ulyanovsk Oblast,Ulyanovsk,улица Стасова,19,2,9,1,33.9,,8.0,,2.0,2013.0,4.0,,1.0,,2.0,1.0,7.0,4.0,20.0,11.0
https://ulyanovsk.cian.ru/sale/flat/266975631/,2024-10-04 15:40:00,3750000,1.0,"Ульяновская область, Ульяновск, р-н Железнодорожный, ул. Державина, 16",54.2686888,48.3278736,Железнодорожный район,Ulyanovsk Oblast,Ulyanovsk,улица Державина,16,5,5,1,48.0,22.0,11.0,,2.0,2003.0,1.0,1.0,1.0,,,1.0,7.0,3.0,10.0,8.0
